"TOA5","CR1000_1436_Modem","CR1000","E10522","CR1000.Std.29","CPU:Calibration_folgefonna_station_code_1436_040926.CR1","43306","Table15min"
"TIMESTAMP","RECORD","ID","BattV_Min","BattV_TMn","PTemp_C_Avg","P","Tilt_X","Tilt_Y","Latitude_A","Latitude_B","Longitude_A","Longitude_B","MagVar","NumSats","Altitude","FixQual","MaxClockChange","NumClockChange","PPS","SecSinceGPRMC","NMEASent(1)","NMEASent(2)","GNSS_Time","Snow_Height","Signal_Quality","T_Avg","T_2_Avg","U_Avg","U_temp_Avg","U_2_Avg","U_temp_2_Avg"
"TS","RN","","Volts","Volts","Deg C","hPa","","","degrees","minutes","degrees","minutes","degrees","count","meters","code","milliseconds","count","microseconds","seconds","","","","","","","","","","",""
"","","Smp","Min","TMn","Avg","Smp","Smp","Smp","Smp","Smp","Smp","Smp","Smp","Smp","Smp","Smp","Smp","Smp","Smp","Smp","Smp","Smp","Smp","Smp","Smp","Avg","Avg","Avg","Avg","Avg","Avg"
"2026-04-19 16:00:00",0,1436,13.26,"2026-04-19 15:54:00",12.49,1019,7.77,-4.429,60,23,5,19.96,0.1,8,23.1,1,0,0,"NAN",0.43,"$GPRMC,160004,A,6023.0006,N,00519.9563,E,000.0,006.2,190426,000.1,E","$GPGGA,160004,6023.0006,N,00519.9563,E,1,08,1.1,23.1,M,43.3,M,,","",-999,0,"NAN","NAN",79.02,191.6,78.68,185.7
"2026-04-19 16:15:00",1,1436,13.26,"2026-04-19 16:01:00",12.7,1019,7.77,-4.488,60,23,5,19.97,0.1,9,7.2,1,0,0,"NAN",0.54,"$GPRMC,161504,A,6023.0026,N,00519.9663,E,000.0,006.2,190426,000.1,E","$GPGGA,161504,6023.0026,N,00519.9663,E,1,09,0.9,7.1,M,43.3,M,,","",-999,0,"NAN","NAN",101.6,191.8,100.6,186.5
"2026-04-19 16:30:00",2,1436,13.26,"2026-04-19 16:29:00",12.88,-99.9,7.77,-4.488,60,23,5,19.96,0.1,8,13.3,1,0,0,"NAN",0.61,"$GPRMC,163002,A,6023.0030,N,00519.9587,E,000.0,006.2,190426,000.1,E","$GPGGA,163002,6023.0030,N,00519.9587,E,1,08,1.0,13.3,M,43.3,M,,","",-999,0,"NAN","NAN",88.9,194.4,88.3,188.8
"2026-04-19 16:45:00",3,1436,13.26,"2026-04-19 16:31:00",12.93,-99.9,7.77,-4.48,60,23,5,19.96,0.1,9,9.1,2,0,0,"NAN",0.74,"$GPRMC,164502,A,6023.0034,N,00519.9599,E,000.0,006.2,190426,000.1,E","$GPGGA,164502,6023.0034,N,00519.9599,E,2,09,1.0,9.1,M,43.3,M,,","",-999,0,"NAN","NAN",85.3,194.3,84.8,188.5
"2026-04-19 17:00:00",4,1436,13.25,"2026-04-19 16:56:00",12.01,1019,7.77,-4.412,60,23,5,19.96,0.1,9,17.7,2,0,0,"NAN",0.69,"$GPRMC,170002,A,6023.0048,N,00519.9609,E,000.0,006.2,190426,000.1,E","$GPGGA,170002,6023.0048,N,00519.9609,E,2,09,1.0,17.7,M,43.3,M,,","",-999,0,"NAN","NAN",86.3,194.9,85.8,189.1
"2026-04-19 17:15:00",5,1436,13.25,"2026-04-19 17:02:00",11.78,1019,7.762,-4.403,60,23,5,19.96,0.1,10,11,2,0,0,"NAN",0.62,"$GPRMC,171502,A,6023.0019,N,00519.9610,E,000.0,006.2,190426,000.1,E","$GPGGA,171502,6023.0019,N,00519.9610,E,2,10,0.9,11.0,M,43.3,M,,","",-999,0,"NAN","NAN",79.91,194.7,79.76,188.6
"2026-04-19 17:45:00",6,1436,13.25,"2026-04-19 17:45:00",11.6,-99.9,7.77,-4.352,60,23,5,19.96,0.1,9,7.6,1,0,0,"NAN",0.77,"$GPRMC,174502,A,6022.9998,N,00519.9609,E,000.0,013.3,190426,000.1,E","$GPGGA,174502,6022.9998,N,00519.9609,E,1,09,0.9,7.6,M,43.3,M,,","",-999,0,"NAN","NAN",109.7,195,108.8,189.7
"2026-04-19 18:00:00",7,1436,13.25,"2026-04-19 17:56:00",10.57,1020,7.762,-4.293,60,23,5,19.96,0.1,9,12.4,1,0,0,"NAN",0.7,"$GPRMC,180002,A,6023.0028,N,00519.9621,E,000.0,013.3,190426,000.1,E","$GPGGA,180002,6023.0028,N,00519.9621,E,1,09,1.0,12.4,M,43.3,M,,","",-999,0,"NAN","NAN",113.6,196,112.6,190.6
"2026-04-19 18:15:00",8,1436,13.25,"2026-04-19 18:01:00",10.19,1020,7.77,-4.242,60,23,5,19.96,0.1,9,17,2,0,0,"NAN",0.66,"$GPRMC,181502,A,6023.0021,N,00519.9627,E,000.0,013.3,190426,000.1,E","$GPGGA,181502,6023.0021,N,00519.9627,E,2,09,1.0,17.0,M,43.3,M,,","",-999,0,"NAN","NAN",89.1,195.4,88.9,189.4
"2026-04-19 18:30:00",9,1436,13.25,"2026-04-19 18:22:00",10.17,1020,7.77,-4.225,60,23,5,19.96,0.1,9,24.5,2,0,0,"NAN",0.6,"$GPRMC,183002,A,6022.9955,N,00519.9626,E,000.0,013.3,190426,000.1,E","$GPGGA,183002,6022.9955,N,00519.9626,E,2,09,1.0,24.5,M,43.3,M,,","",-999,0,"NAN","NAN",87.3,195.1,87.1,189.2
"2026-04-19 18:45:00",10,1436,13.25,"2026-04-19 18:33:00",9.96,1020,7.762,-4.174,60,23,5,19.96,0.1,7,14.6,1,0,0,"NAN",0.71,"$GPRMC,184502,A,6023.0018,N,00519.9608,E,000.0,001.7,190426,000.1,E","$GPGGA,184502,6023.0018,N,00519.9608,E,1,07,1.2,14.6,M,43.3,M,,","",-999,0,"NAN","NAN",93.2,195.3,92.8,189.5
"2026-04-19 19:00:00",11,1436,13.25,"2026-04-19 18:46:00",9.55,1020,7.753,-4.131,60,23,5,19.96,0.1,9,14.3,2,0,0,"NAN",0.62,"$GPRMC,190002,A,6023.0030,N,00519.9582,E,000.0,001.7,190426,000.1,E","$GPGGA,190002,6023.0030,N,00519.9582,E,2,09,0.9,14.3,M,43.3,M,,","",-999,0,"NAN","NAN",95.8,195.5,95.4,189.7
"2026-04-19 19:15:00",12,1436,13.25,"2026-04-19 19:01:00",8.99,1020,7.753,-4.055,60,23,5,19.96,0.1,9,17.8,2,0,0,"NAN",0.72,"$GPRMC,191502,A,6023.0025,N,00519.9577,E,000.0,001.7,190426,000.1,E","$GPGGA,191502,6023.0025,N,00519.9577,E,2,09,0.9,17.8,M,43.3,M,,","",-999,0,"NAN","NAN",97.8,195.6,97.4,189.9
"2026-04-19 19:30:00",13,1436,13.25,"2026-04-19 19:28:00",8.48,1020,7.753,-3.995,60,23,5,19.96,0.1,9,24.7,2,0,0,"NAN",0.73,"$GPRMC,193002,A,6023.0028,N,00519.9565,E,000.0,001.7,190426,000.1,E","$GPGGA,193002,6023.0028,N,00519.9565,E,2,09,0.9,24.7,M,43.3,M,,","",-999,0,"NAN","NAN",96,195.4,95.8,189.6
"2026-04-21 11:45:00",14,1436,14.82,"2026-04-21 11:44:00",10.39,-99.9,-34.05,-33.34,"NAN","NAN","NAN","NAN","NAN",0,"NAN",0,0,0,"NAN","NAN","$GPRMC,194132,A,6023.0058,N,00519.9563,E,000.0,001.7,190426,000.1,E","$GPGGA,194132,6023.0058,N,00519.9563,E,2,09,0.9,27.0,M,43.3,M,,","",-999,0,"NAN","NAN",-23.51,-82.1,-20.79,-41.27
"2026-04-21 12:00:00",15,1436,14.81,"2026-04-21 11:47:00",10.43,845,7.753,-7.784,60,3.947,6,23.45,0.6,11,1637,1,0,0,"NAN",0.39,"$GPRMC,120003,A,6003.9468,N,00623.4529,E,000.0,216.2,210426,000.6,E","$GPGGA,120003,6003.9468,N,00623.4529,E,1,11,0.8,1636.7,M,42.0,M,,","",-999,0,1.085,1.346,131,52.06,4.611,1.66
"2026-04-21 12:15:00",16,1436,14.77,"2026-04-21 12:14:00",11.12,845,7.753,-7.699,60,3.947,6,23.45,0.6,10,1636,1,0,0,"NAN",0.21,"$GPRMC,121503,A,6003.9467,N,00623.4534,E,000.0,216.2,210426,000.6,E","$GPGGA,121503,6003.9467,N,00623.4534,E,1,10,0.8,1635.6,M,42.0,M,,","",-999,0,1.074,1.536,220.4,163.3,4.561,1.622
"2026-04-21 12:30:00",17,1436,14.77,"2026-04-21 12:16:00",11.15,845,7.753,-7.784,60,3.946,6,23.45,0.6,12,1636,2,0,0,"NAN",0.06,"$GPRMC,123003,A,6003.9464,N,00623.4540,E,000.0,216.2,210426,000.6,E","$GPGGA,123002,6003.9464,N,00623.4540,E,2,12,0.7,1635.5,M,42.0,M,,","",-999,0,1.193,1.193,220.4,162.6,4.154,1.597
"2026-04-21 12:45:00",18,1436,14.43,"2026-04-21 12:44:00",10.79,845,7.77,-7.793,60,3.947,6,23.45,0.6,10,1638,2,0,0,"NAN",0.29,"$GPRMC,124503,A,6003.9474,N,00623.4532,E,000.0,216.2,210426,000.6,E","$GPGGA,124503,6003.9474,N,00623.4532,E,2,10,0.8,1638.1,M,42.0,M,,","",-999,0,1.128,1.443,220.4,163.5,3.992,1.54
"2026-04-21 13:00:00",19,1436,14.57,"2026-04-21 12:55:00",10.97,845,7.77,-7.784,60,3.947,6,23.45,0.6,10,1639,2,0,0,"NAN",0.31,"$GPRMC,130003,A,6003.9472,N,00623.4522,E,000.0,216.2,210426,000.6,E","$GPGGA,130003,6003.9472,N,00623.4522,E,2,10,0.9,1638.6,M,42.0,M,,","",-999,0,0.899,1.298,220.4,163.3,4.534,1.641
"2026-04-21 13:15:00",20,1436,14.84,"2026-04-21 13:07:00",9.23,-99.9,7.753,-7.487,60,3.947,6,23.45,0.6,9,1638,2,0,0,"NAN",0.18,"$GPRMC,131503,A,6003.9473,N,00623.4515,E,000.0,000.0,210426,000.6,E","$GPGGA,131503,6003.9473,N,00623.4515,E,2,09,1.0,1638.2,M,42.0,M,,","",-999,0,1.071,1.337,220.1,166,4.46,1.652
"2026-04-21 13:30:00",21,1436,14.79,"2026-04-21 13:30:00",8.96,-99.9,7.753,-7.419,60,3.948,6,23.45,0.6,10,1639,1,0,0,"NAN",0.25,"$GPRMC,133003,A,6003.9478,N,00623.4496,E,000.0,000.0,210426,000.6,E","$GPGGA,133003,6003.9478,N,00623.4496,E,1,10,1.0,1639.0,M,42.0,M,,","",-999,0,1.239,1.26,220.1,166.8,4.127,1.848
"2026-04-21 14:00:00",22,1436,14.17,"2026-04-21 13:57:00",7.454,845,-5.091,-24.21,60,3.948,6,23.45,0.6,12,1642,2,0,0,"NAN",0.04,"$GPRMC,140003,A,6003.9475,N,00623.4519,E,000.0,000.0,210426,000.6,E","$GPGGA,140002,6003.9475,N,00623.4518,E,2,12,0.7,1641.7,M,42.0,M,,","",-999,0,1.136,1.611,173,1.721,3.916,1.636
"2026-04-21 14:15:00",23,1436,14.18,"2026-04-21 14:09:00",7.465,845,-5.091,-24.21,60,3.949,6,23.45,0.6,11,1646,2,0,0,"NAN",0.08,"$GPRMC,141503,A,6003.9487,N,00623.4516,E,000.0,000.0,210426,000.6,E","$GPGGA,141502,6003.9487,N,00623.4516,E,2,11,0.7,1646.0,M,42.0,M,,","",-999,0,1.27,1.566,171.2,-12.81,3.598,1.707
"2026-04-21 14:30:00",24,1436,14.2,"2026-04-21 14:16:00",7.026,845,-5.184,-24.21,60,3.949,6,23.45,0.6,11,1649,2,0,0,"NAN",0.16,"$GPRMC,143003,A,6003.9491,N,00623.4510,E,000.0,000.0,210426,000.6,E","$GPGGA,143003,6003.9491,N,00623.4510,E,2,11,0.7,1648.5,M,42.0,M,,","",-999,0,1.094,1.434,171.2,-12.77,3.757,1.65
"2026-04-21 14:45:00",25,1436,14.21,"2026-04-21 14:43:00",6.603,845,-5.227,-24.21,60,3.949,6,23.45,0.6,10,1650,2,0,0,"NAN",0.12,"$GPRMC,144503,A,6003.9490,N,00623.4504,E,000.0,000.0,210426,000.6,E","$GPGGA,144503,6003.9490,N,00623.4504,E,2,10,0.8,1649.6,M,42.0,M,,","",-999,0,1.039,1.403,126.2,-9.17,4.177,1.451
"2026-04-21 15:00:00",26,1436,14.2,"2026-04-21 14:50:00",5.979,844,-34.07,-33.33,60,3.949,6,23.45,0.6,11,1651,2,0,0,"NAN",0.12,"$GPRMC,150003,A,6003.9492,N,00623.4500,E,000.0,000.0,210426,000.6,E","$GPGGA,150003,6003.9492,N,00623.4500,E,2,11,0.8,1651.0,M,42.0,M,,","",-999,0,0.998,1.418,3.802,0.655,4.277,1.414
"2026-04-21 15:15:00",27,1436,14.25,"2026-04-21 15:08:00",5.695,844,-34.06,-33.31,60,3.949,6,23.45,0.6,10,1651,2,0,0,"NAN",0.07,"$GPRMC,151503,A,6003.9492,N,00623.4502,E,000.0,000.0,210426,000.6,E","$GPGGA,151502,6003.9492,N,00623.4502,E,2,10,0.8,1651.2,M,42.0,M,,","",-999,0,1.088,1.491,3.762,0.807,4.232,1.592
"2026-04-21 15:30:00",28,1436,14.25,"2026-04-21 15:29:00",4.771,-99.9,-34.07,-33.35,60,3.949,6,23.45,0.6,10,1650,1,0,0,"NAN",0.23,"$GPRMC,153003,A,6003.9488,N,00623.4520,E,000.0,353.2,210426,000.6,E","$GPGGA,153003,6003.9488,N,00623.4520,E,1,10,0.9,1650.3,M,42.0,M,,","",-999,0,0.809,1.397,3.9,0.618,4.646,1.473
"2026-04-21 15:45:00",29,1436,14.25,"2026-04-21 15:42:00",5.722,-99.9,-34.05,-33.27,60,3.949,6,23.45,0.6,10,1649,1,0,0,"NAN",0.15,"$GPRMC,154503,A,6003.9485,N,00623.4511,E,000.0,353.2,210426,000.6,E","$GPGGA,154503,6003.9485,N,00623.4511,E,1,10,0.9,1649.2,M,42.0,M,,","",-999,0,1.025,1.42,3.895,0.64,4.296,1.518
"2026-04-21 16:30:00",30,1436,14.12,"2026-04-21 16:29:00",4.292,-99.9,-1.183,2.613,60,3.947,6,23.45,0.6,11,1643,2,0,0,"NAN",0.08,"$GPRMC,163003,A,6003.9467,N,00623.4515,E,000.0,132.5,210426,000.6,E","$GPGGA,163002,6003.9467,N,00623.4515,E,2,11,0.8,1642.8,M,42.0,M,,","",-999,0,-0.125,-0.017,15.44,-0.531,16.66,0.64
"2026-04-21 16:45:00",31,1436,14.12,"2026-04-21 16:31:00",3.926,-99.9,-1.362,2.741,60,3.947,6,23.45,0.6,11,1644,2,0,0,"NAN",0.13,"$GPRMC,164503,A,6003.9472,N,00623.4519,E,000.0,132.5,210426,000.6,E","$GPGGA,164503,6003.9472,N,00623.4519,E,2,11,0.7,1644.1,M,42.0,M,,","",-999,0,-0.226,0.213,22.41,-0.743,20.04,0.244
"2026-04-21 17:00:00",32,1436,14.31,"2026-04-21 16:52:00",3.485,844,-1.26,2.647,60,3.948,6,23.45,0.6,12,1648,2,0,0,"NAN",0.06,"$GPRMC,170003,A,6003.9475,N,00623.4526,E,000.0,132.5,210426,000.6,E","$GPGGA,170002,6003.9475,N,00623.4526,E,2,12,0.7,1647.6,M,42.0,M,,","",-999,0,-0.302,0.034,26.67,-0.788,21.85,0.333
"2026-04-21 17:15:00",33,1436,14.32,"2026-04-21 17:09:00",3.355,844,-1.226,2.622,60,3.948,6,23.45,0.6,12,1650,2,0,0,"NAN",0.22,"$GPRMC,171503,A,6003.9476,N,00623.4535,E,000.0,132.5,210426,000.6,E","$GPGGA,171503,6003.9476,N,00623.4535,E,2,12,0.7,1650.4,M,42.0,M,,","",-999,0,-0.471,-0.263,30.76,-1.022,30.99,-0.047
"2026-04-21 17:30:00",34,1436,14.31,"2026-04-21 17:21:00",3.2,844,-1.258,2.623,60,3.948,6,23.45,0.6,10,1652,2,0,0,"NAN",0.11,"$GPRMC,173003,A,6003.9479,N,00623.4532,E,000.0,132.5,210426,000.6,E","$GPGGA,173003,6003.9479,N,00623.4532,E,2,10,0.8,1652.4,M,42.0,M,,","",-999,0,-0.648,-0.261,33.46,-1.168,34.11,-0.288
"2026-04-21 17:45:00",35,1436,14.31,"2026-04-21 17:31:00",3.012,844,-1.249,2.386,60,3.948,6,23.45,0.6,12,1652,2,0,0,"NAN",0.05,"$GPRMC,174503,A,6003.9480,N,00623.4516,E,000.0,132.5,210426,000.6,E","$GPGGA,174502,6003.9480,N,00623.4516,E,2,12,0.8,1652.2,M,42.0,M,,","",-999,0,-0.778,-0.536,35.23,-1.244,35.9,-0.503
"2026-04-21 18:00:00",36,1436,14.31,"2026-04-21 17:54:00",2.75,844,-1.231,2.464,60,3.948,6,23.45,0.6,12,1652,2,0,0,"NAN",0.05,"$GPRMC,180003,A,6003.9482,N,00623.4514,E,000.0,132.5,210426,000.6,E","$GPGGA,180002,6003.9482,N,00623.4514,E,2,12,0.7,1651.7,M,42.0,M,,","",-999,0,-1.003,-0.73,35.16,-1.547,35.11,-0.497
"2026-04-21 18:15:00",37,1436,14.31,"2026-04-21 18:05:00",2.366,844,-1.266,2.463,60,3.948,6,23.45,0.6,11,1653,2,0,0,"NAN",0.14,"$GPRMC,181503,A,6003.9482,N,00623.4516,E,000.0,132.5,210426,000.6,E","$GPGGA,181503,6003.9482,N,00623.4516,E,2,11,0.7,1652.6,M,42.0,M,,","",-999,0,-1.148,-0.597,40.1,-1.687,38.19,-0.547
"2026-04-21 18:30:00",38,1436,14.31,"2026-04-21 18:16:00",1.962,844,-1.175,2.401,60,3.948,6,23.45,0.6,11,1652,2,0,0,"NAN",0.09,"$GPRMC,183003,A,6003.9481,N,00623.4514,E,000.0,132.5,210426,000.6,E","$GPGGA,183002,6003.9481,N,00623.4514,E,2,11,0.8,1651.9,M,42.0,M,,","",-999,0,-1.195,-0.657,40.91,-1.718,38.94,-0.636
"2026-04-21 18:45:00",39,1436,14.35,"2026-04-21 18:35:00",1.533,844,-1.264,2.431,60,3.948,6,23.45,0.6,9,1651,2,0,0,"NAN",0.12,"$GPRMC,184503,A,6003.9480,N,00623.4514,E,000.0,132.5,210426,000.6,E","$GPGGA,184503,6003.9480,N,00623.4514,E,2,09,0.8,1650.8,M,42.0,M,,","",-999,0,-1.09,-0.655,40.61,-1.693,37.99,-0.528
"2026-04-21 19:00:00",40,1436,13.84,"2026-04-21 19:00:00",1.051,844,-1.214,2.405,60,3.948,6,23.45,0.6,10,1650,2,0,0,"NAN",0.14,"$GPRMC,190003,A,6003.9484,N,00623.4515,E,000.0,132.5,210426,000.6,E","$GPGGA,190003,6003.9484,N,00623.4515,E,2,10,0.8,1650.1,M,42.0,M,,","",-999,0,-0.725,-0.097,32.13,-1.396,24.15,-0.142
"2026-04-21 19:15:00",41,1436,13.69,"2026-04-21 19:15:00",0.602,844,-1.144,2.432,60,3.948,6,23.45,0.6,12,1649,2,0,0,"NAN",0.07,"$GPRMC,191503,A,6003.9484,N,00623.4517,E,000.0,132.5,210426,000.6,E","$GPGGA,191502,6003.9484,N,00623.4517,E,2,12,0.7,1649.2,M,42.0,M,,","",-999,0,0.005,0.606,11.79,-0.698,8.53,0.391
"2026-04-21 19:30:00",42,1436,13.55,"2026-04-21 19:30:00",0.185,844,-1.127,2.398,60,3.948,6,23.45,0.6,11,1648,2,0,0,"NAN",0.21,"$GPRMC,193003,A,6003.9479,N,00623.4509,E,000.0,132.5,210426,000.6,E","$GPGGA,193003,6003.9479,N,00623.4509,E,2,11,0.8,1648.3,M,42.0,M,,","",-999,0,0.29,0.955,8.02,-0.355,7.299,0.968
"2026-04-21 19:45:00",43,1436,13.43,"2026-04-21 19:45:00",-0.187,844,-1.068,2.262,60,3.948,6,23.45,0.6,11,1648,2,0,0,"NAN",0.18,"$GPRMC,194503,A,6003.9478,N,00623.4503,E,000.0,132.5,210426,000.6,E","$GPGGA,194503,6003.9478,N,00623.4503,E,2,11,0.8,1647.7,M,42.0,M,,","",-999,0,0.083,0.54,8.05,-0.462,8.46,0.748
"2026-04-21 20:00:00",44,1436,13.31,"2026-04-21 20:00:00",-0.54,844,-1.127,2.372,60,3.948,6,23.45,0.6,11,1648,2,0,0,"NAN",0.19,"$GPRMC,200003,A,6003.9477,N,00623.4499,E,000.0,132.5,210426,000.6,E","$GPGGA,200003,6003.9477,N,00623.4499,E,2,11,0.7,1648.4,M,42.0,M,,","",-999,0,-0.62,-0.172,16.99,-1.103,16.73,-0.09
"2026-04-21 20:15:00",45,1436,13.2,"2026-04-21 20:15:00",-0.94,844,-1.042,2.313,60,3.948,6,23.45,0.6,11,1649,2,0,0,"NAN",0.25,"$GPRMC,201503,A,6003.9478,N,00623.4500,E,000.0,132.5,210426,000.6,E","$GPGGA,201503,6003.9478,N,00623.4500,E,2,11,0.8,1649.2,M,42.0,M,,","",-999,0,-0.546,-0.123,19.81,-1.247,18.02,-0.113
"2026-04-21 20:30:00",46,1436,13.09,"2026-04-21 20:30:00",-1.25,844,-1.238,2.33,60,3.948,6,23.45,0.6,11,1652,2,0,0,"NAN",0.1,"$GPRMC,203003,A,6003.9480,N,00623.4499,E,000.0,132.5,210426,000.6,E","$GPGGA,203002,6003.9480,N,00623.4499,E,2,11,0.8,1651.6,M,42.0,M,,","",-999,0,-0.825,-0.305,24.43,-1.414,24.08,-0.407
"2026-04-21 20:45:00",47,1436,12.99,"2026-04-21 20:45:00",-1.491,844,-1.221,2.338,60,3.948,6,23.45,0.6,11,1655,2,0,0,"NAN",0.15,"$GPRMC,204503,A,6003.9482,N,00623.4501,E,000.0,132.5,210426,000.6,E","$GPGGA,204503,6003.9482,N,00623.4501,E,2,11,0.8,1654.6,M,42.0,M,,","",-999,0,-0.206,0.589,17.97,-1.015,14.27,0.397
"2026-04-21 21:00:00",48,1436,12.9,"2026-04-21 21:00:00",-1.467,843,-1.272,2.262,60,3.948,6,23.45,0.6,11,1657,2,0,0,"NAN",0.11,"$GPRMC,210003,A,6003.9479,N,00623.4509,E,000.0,132.5,210426,000.6,E","$GPGGA,210003,6003.9479,N,00623.4509,E,2,11,0.7,1656.8,M,42.0,M,,","",-999,0,0.824,1.136,5.677,0.176,5.379,1.278
"2026-04-21 21:15:00",49,1436,12.82,"2026-04-21 21:15:00",-1.186,843,-1.187,2.364,60,3.948,6,23.45,0.6,12,1656,2,0,0,"NAN",0.09,"$GPRMC,211503,A,6003.9479,N,00623.4505,E,000.0,132.5,210426,000.6,E","$GPGGA,211502,6003.9479,N,00623.4505,E,2,12,0.7,1656.2,M,42.0,M,,","",-999,0,0.61,1.085,7.663,0.005,7.785,0.917
"2026-04-21 21:30:00",50,1436,12.77,"2026-04-21 21:29:00",-0.956,843,-1.187,2.491,60,3.948,6,23.45,0.6,9,1655,2,0,0,"NAN",0.21,"$GPRMC,213003,A,6003.9482,N,00623.4505,E,000.0,132.5,210426,000.6,E","$GPGGA,213003,6003.9482,N,00623.4505,E,2,09,1.0,1655.1,M,42.0,M,,","",-999,0,0.362,0.973,12.29,-0.257,12.5,0.87
"2026-04-21 21:45:00",51,1436,12.73,"2026-04-21 21:44:00",-0.808,843,-1.212,2.381,60,3.948,6,23.45,0.6,9,1654,1,0,0,"NAN",0.19,"$GPRMC,214503,A,6003.9484,N,00623.4506,E,000.0,132.5,210426,000.6,E","$GPGGA,214503,6003.9484,N,00623.4506,E,1,09,0.9,1654.3,M,42.0,M,,","",-999,0,0.55,1.083,9.73,-0.079,9.35,0.959
"2026-04-21 22:00:00",52,1436,12.71,"2026-04-21 22:00:00",-0.659,843,-1.195,2.321,60,3.948,6,23.45,0.6,11,1654,1,0,0,"NAN",0.3,"$GPRMC,220003,A,6003.9482,N,00623.4510,E,000.0,132.5,210426,000.6,E","$GPGGA,220003,6003.9482,N,00623.4510,E,1,11,0.7,1653.8,M,42.0,M,,","",-999,0,0.531,1.066,12.35,-0.057,12.9,1.133
"2026-04-21 22:15:00",53,1436,12.69,"2026-04-21 22:15:00",-0.606,843,-1.11,2.398,60,3.948,6,23.45,0.6,10,1653,1,0,0,"NAN",0.11,"$GPRMC,221503,A,6003.9477,N,00623.4513,E,000.0,132.5,210426,000.6,E","$GPGGA,221503,6003.9477,N,00623.4513,E,1,10,0.7,1652.9,M,42.0,M,,","",-999,0,0.529,1.117,16.5,-0.17,16.7,1.027
"2026-04-21 22:30:00",54,1436,12.69,"2026-04-21 22:19:00",-0.602,843,-1.136,2.381,60,3.947,6,23.45,0.6,11,1652,1,0,0,"NAN",0.22,"$GPRMC,223003,A,6003.9469,N,00623.4517,E,000.0,132.5,210426,000.6,E","$GPGGA,223003,6003.9469,N,00623.4517,E,1,11,0.7,1652.1,M,42.0,M,,","",-999,0,1.048,1.436,17.73,0.4,17.85,1.445
"2026-04-21 22:45:00",55,1436,12.7,"2026-04-21 22:33:00",-0.557,843,-1.178,2.372,60,3.946,6,23.45,0.6,11,1652,1,0,0,"NAN",0.22,"$GPRMC,224503,A,6003.9463,N,00623.4516,E,000.0,132.5,210426,000.6,E","$GPGGA,224503,6003.9463,N,00623.4516,E,1,11,0.8,1651.8,M,42.0,M,,","",-999,0,0.559,1.026,22.39,-0.006,22.87,1.165
"2026-04-21 23:00:00",56,1436,12.7,"2026-04-21 22:55:00",-0.596,843,-1.161,2.466,60,3.946,6,23.45,0.6,12,1651,1,0,0,"NAN",0.32,"$GPRMC,230003,A,6003.9460,N,00623.4508,E,000.0,132.5,210426,000.6,E","$GPGGA,230003,6003.9460,N,00623.4508,E,1,12,0.8,1650.8,M,42.0,M,,","",-999,0,0.136,0.842,26.77,-0.45,27.02,0.791
"2026-04-21 23:15:00",57,1436,12.7,"2026-04-21 23:04:00",-0.669,843,-1.127,2.457,60,3.946,6,23.45,0.6,12,1650,1,0,0,"NAN",0.27,"$GPRMC,231503,A,6003.9456,N,00623.4503,E,000.0,132.5,210426,000.6,E","$GPGGA,231503,6003.9456,N,00623.4503,E,1,12,0.8,1649.6,M,42.0,M,,","",-999,0,0.012,0.779,31.79,-0.682,31.93,0.566
"2026-04-21 23:30:00",58,1436,12.71,"2026-04-21 23:26:00",-0.693,843,-1.11,2.398,60,3.946,6,23.45,0.6,12,1649,1,0,0,"NAN",0.32,"$GPRMC,233003,A,6003.9455,N,00623.4500,E,000.0,132.5,210426,000.6,E","$GPGGA,233003,6003.9455,N,00623.4500,E,1,12,0.8,1649.4,M,42.0,M,,","",-999,0,0.617,1.235,30.15,-0.069,29.4,1.116
"2026-04-21 23:45:00",59,1436,12.71,"2026-04-21 23:33:00",-0.6,843,-1.229,2.398,60,3.945,6,23.45,0.6,12,1650,1,0,0,"NAN",0.32,"$GPRMC,234503,A,6003.9453,N,00623.4507,E,000.0,132.5,210426,000.6,E","$GPGGA,234503,6003.9453,N,00623.4507,E,1,12,0.7,1649.6,M,42.0,M,,","",-999,0,0.791,1.21,25.66,0.129,25.03,1.313
"2026-04-22 00:00:00",60,1436,12.72,"2026-04-21 23:50:00",-0.513,843,-1.28,2.406,60,3.945,6,23.45,0.6,10,1649,1,0,0,"NAN",0.34,"$GPRMC,000003,A,6003.9454,N,00623.4514,E,000.0,132.5,220426,000.6,E","$GPGGA,000003,6003.9454,N,00623.4514,E,1,10,0.8,1649.4,M,42.0,M,,","",-999,0,0.416,1.044,26.59,-0.183,26.15,0.982
"2026-04-22 00:15:00",61,1436,12.71,"2026-04-22 00:10:00",-0.476,843,-1.187,2.483,60,3.946,6,23.45,0.6,11,1649,1,0,0,"NAN",0.32,"$GPRMC,001503,A,6003.9456,N,00623.4523,E,000.0,132.5,220426,000.6,E","$GPGGA,001503,6003.9456,N,00623.4523,E,1,11,0.7,1649.2,M,42.0,M,,","",-999,0,0.655,1.271,21.38,-0.061,20.39,1.301
"2026-04-22 00:30:00",62,1436,12.72,"2026-04-22 00:24:00",-0.455,843,-1.136,2.423,60,3.946,6,23.45,0.6,10,1649,1,0,0,"NAN",0.3,"$GPRMC,003003,A,6003.9457,N,00623.4526,E,000.0,132.5,220426,000.6,E","$GPGGA,003003,6003.9457,N,00623.4526,E,1,10,0.9,1649.0,M,42.0,M,,","",-999,0,0.51,0.972,22.36,-0.127,21.42,1.007
"2026-04-22 00:45:00",63,1436,12.72,"2026-04-22 00:36:00",-0.423,843,-1.195,2.449,60,3.946,6,23.45,0.6,10,1649,1,0,0,"NAN",0.35,"$GPRMC,004503,A,6003.9455,N,00623.4525,E,000.0,132.5,220426,000.6,E","$GPGGA,004503,6003.9455,N,00623.4525,E,1,10,0.9,1649.4,M,42.0,M,,","",-999,0,0.819,1.277,18.68,0.235,18.35,1.261
"2026-04-22 01:00:00",64,1436,12.72,"2026-04-22 01:00:00",-0.327,843,-1.178,2.466,60,3.946,6,23.45,0.6,10,1649,1,0,0,"NAN",0.32,"$GPRMC,010003,A,6003.9463,N,00623.4521,E,000.0,132.5,220426,000.6,E","$GPGGA,010003,6003.9463,N,00623.4521,E,1,10,0.9,1649.4,M,42.0,M,,","",-999,0,1.152,1.622,14.89,0.55,13.7,1.747
"2026-04-22 01:15:00",65,1436,12.71,"2026-04-22 01:03:00",-0.229,843,-1.153,2.44,60,3.947,6,23.45,0.6,10,1650,1,0,0,"NAN",0.32,"$GPRMC,011503,A,6003.9466,N,00623.4518,E,000.0,132.5,220426,000.6,E","$GPGGA,011503,6003.9466,N,00623.4518,E,1,10,1.0,1649.5,M,42.0,M,,","",-999,0,0.392,0.904,22.58,-0.129,22.65,0.941
"2026-04-22 01:30:00",66,1436,12.72,"2026-04-22 01:17:00",-0.31,843,-1.238,2.381,60,3.947,6,23.45,0.6,11,1649,1,0,0,"NAN",0.33,"$GPRMC,013003,A,6003.9468,N,00623.4519,E,000.0,132.5,220426,000.6,E","$GPGGA,013003,6003.9468,N,00623.4519,E,1,11,0.9,1649.3,M,42.0,M,,","",-999,0,0.541,1.113,25.77,-0.179,24.79,1.024
"2026-04-22 01:45:00",67,1436,12.72,"2026-04-22 01:37:00",-0.263,843,-1.034,2.474,60,3.947,6,23.45,0.6,11,1649,1,0,0,"NAN",0.31,"$GPRMC,014503,A,6003.9465,N,00623.4529,E,000.0,132.5,220426,000.6,E","$GPGGA,014503,6003.9465,N,00623.4529,E,1,11,0.8,1649.2,M,42.0,M,,","",-999,0,1.114,1.737,17.72,0.384,17.42,1.568
"2026-04-22 02:00:00",68,1436,12.72,"2026-04-22 01:53:00",-0.103,843,-1.076,2.508,60,3.946,6,23.45,0.6,12,1649,1,0,0,"NAN",0.31,"$GPRMC,020003,A,6003.9462,N,00623.4533,E,000.0,132.5,220426,000.6,E","$GPGGA,020003,6003.9462,N,00623.4533,E,1,12,0.7,1649.2,M,42.0,M,,","",-999,0,1.292,1.725,21.89,0.719,23.36,1.808
"2026-04-22 02:15:00",69,1436,12.72,"2026-04-22 02:09:00",-0.062,843,-1.263,2.262,60,3.946,6,23.45,0.6,12,1648,1,0,0,"NAN",0.34,"$GPRMC,021503,A,6003.9460,N,00623.4536,E,000.0,132.5,220426,000.6,E","$GPGGA,021503,6003.9460,N,00623.4536,E,1,12,0.7,1648.1,M,42.0,M,,","",-999,0,-0.139,0.569,32.48,-0.718,32.43,0.624
"2026-04-22 02:30:00",70,1436,12.72,"2026-04-22 02:16:00",-0.283,843,-1.178,2.406,60,3.946,6,23.45,0.6,12,1648,1,0,0,"NAN",0.37,"$GPRMC,023003,A,6003.9459,N,00623.4537,E,000.0,132.5,220426,000.6,E","$GPGGA,023003,6003.9459,N,00623.4537,E,1,12,0.7,1647.6,M,42.0,M,,","",-999,0,0.182,0.958,36.79,-0.515,36.59,0.783
"2026-04-22 02:45:00",71,1436,12.73,"2026-04-22 02:31:00",-0.349,843,-1.161,2.398,60,3.946,6,23.45,0.6,12,1647,1,0,0,"NAN",0.33,"$GPRMC,024503,A,6003.9459,N,00623.4533,E,000.0,132.5,220426,000.6,E","$GPGGA,024503,6003.9459,N,00623.4533,E,1,12,0.6,1647.4,M,42.0,M,,","",-999,0,0.728,1.392,36.33,0.049,35.69,1.163
"2026-04-22 03:00:00",72,1436,12.72,"2026-04-22 03:00:00",-0.347,843,-1.187,2.381,60,3.946,6,23.45,0.6,10,1647,1,0,0,"NAN",0.35,"$GPRMC,030003,A,6003.9460,N,00623.4534,E,000.0,132.5,220426,000.6,E","$GPGGA,030003,6003.9460,N,00623.4534,E,1,10,0.7,1646.9,M,42.0,M,,","",-999,0,0.607,1.179,37.41,0.005,37.35,1.081
"2026-04-22 03:15:00",73,1436,12.72,"2026-04-22 03:01:00",-0.435,843,-1.229,2.279,60,3.946,6,23.45,0.6,10,1647,1,0,0,"NAN",0.36,"$GPRMC,031503,A,6003.9462,N,00623.4536,E,000.0,132.5,220426,000.6,E","$GPGGA,031503,6003.9462,N,00623.4536,E,1,10,0.8,1647.0,M,42.0,M,,","",-999,0,0.191,0.509,39.9,-0.449,39.87,0.868
"2026-04-22 03:30:00",74,1436,12.72,"2026-04-22 03:23:00",-0.572,843,-1.102,2.423,60,3.946,6,23.45,0.6,10,1647,1,0,0,"NAN",0.36,"$GPRMC,033003,A,6003.9463,N,00623.4539,E,000.0,132.5,220426,000.6,E","$GPGGA,033003,6003.9463,N,00623.4539,E,1,10,0.8,1647.2,M,42.0,M,,","",-999,0,-0.521,0.238,43.68,-1.103,43.02,0.372
"2026-04-22 03:45:00",75,1436,12.73,"2026-04-22 03:34:00",-0.76,843,-1.187,2.423,60,3.946,6,23.45,0.6,9,1647,1,0,0,"NAN",0.35,"$GPRMC,034503,A,6003.9464,N,00623.4533,E,000.0,132.5,220426,000.6,E","$GPGGA,034503,6003.9464,N,00623.4533,E,1,09,1.0,1647.4,M,42.0,M,,","",-999,0,-0.719,0.155,45.64,-1.348,44.85,0.026
"2026-04-22 04:00:00",76,1436,12.72,"2026-04-22 04:00:00",-0.967,842,-1.178,2.372,60,3.949,6,23.45,0.6,8,1652,2,0,0,"NAN",0.37,"$GPRMC,040003,A,6003.9486,N,00623.4516,E,000.0,132.5,220426,000.6,E","$GPGGA,040003,6003.9486,N,00623.4516,E,2,08,1.1,1651.9,M,42.0,M,,","",-999,0,-0.661,0.032,45.16,-1.318,43.91,0.119
"2026-04-22 04:15:00",77,1436,12.72,"2026-04-22 04:10:00",-1.025,842,-1.136,2.517,60,3.949,6,23.45,0.6,10,1654,2,0,0,"NAN",0.35,"$GPRMC,041503,A,6003.9485,N,00623.4525,E,000.0,132.5,220426,000.6,E","$GPGGA,041503,6003.9485,N,00623.4525,E,2,10,0.9,1654.1,M,42.0,M,,","",-999,0,-0.059,1.048,40.33,-0.734,39.33,0.735
"2026-04-22 04:30:00",78,1436,12.72,"2026-04-22 04:17:00",-0.93,842,-1.051,2.534,60,3.948,6,23.45,0.6,10,1654,2,0,0,"NAN",0.39,"$GPRMC,043003,A,6003.9478,N,00623.4539,E,000.0,132.5,220426,000.6,E","$GPGGA,043003,6003.9478,N,00623.4539,E,2,10,0.9,1654.3,M,42.0,M,,","",-999,0,-0.288,0.77,39.82,-0.879,38.8,0.672
"2026-04-22 04:45:00",79,1436,12.74,"2026-04-22 04:31:00",-0.878,842,-1.153,2.491,60,3.947,6,23.45,0.6,10,1654,2,0,0,"NAN",0.36,"$GPRMC,044503,A,6003.9468,N,00623.4545,E,000.0,132.5,220426,000.6,E","$GPGGA,044503,6003.9468,N,00623.4545,E,2,10,0.8,1653.6,M,42.0,M,,","",-999,0,-0.675,0.564,41.27,-1.29,39.38,0.61
"2026-04-22 05:00:00",80,1436,12.76,"2026-04-22 04:48:00",-0.795,843,-1.119,2.321,60,3.947,6,23.45,0.6,10,1653,2,0,0,"NAN",0.4,"$GPRMC,050003,A,6003.9466,N,00623.4540,E,000.0,132.5,220426,000.6,E","$GPGGA,050003,6003.9466,N,00623.4540,E,2,10,0.8,1652.7,M,42.0,M,,","",-999,0,-0.594,0.348,41.34,-1.197,39.66,0.494
"2026-04-22 05:15:00",81,1436,12.78,"2026-04-22 05:01:00",-0.406,843,-1.102,2.466,60,3.947,6,23.45,0.6,11,1652,2,0,0,"NAN",0.34,"$GPRMC,051503,A,6003.9466,N,00623.4540,E,000.0,132.5,220426,000.6,E","$GPGGA,051503,6003.9466,N,00623.4540,E,2,11,0.7,1652.0,M,42.0,M,,","",-999,0,-0.344,0.643,40.9,-1.041,39.37,0.719
"2026-04-22 05:30:00",82,1436,12.82,"2026-04-22 05:18:00",0.309,843,-1.195,2.551,60,3.947,6,23.45,0.6,11,1651,2,0,0,"NAN",0.35,"$GPRMC,053003,A,6003.9471,N,00623.4536,E,000.0,132.5,220426,000.6,E","$GPGGA,053003,6003.9471,N,00623.4536,E,2,11,0.7,1651.3,M,42.0,M,,","",-999,0,-0.263,0.952,40.36,-0.938,38.22,0.86
"2026-04-22 05:45:00",83,1436,12.87,"2026-04-22 05:32:00",0.99,843,-1.178,2.534,60,3.947,6,23.45,0.6,9,1651,2,0,0,"NAN",0.41,"$GPRMC,054503,A,6003.9473,N,00623.4535,E,000.0,132.5,220426,000.6,E","$GPGGA,054503,6003.9473,N,00623.4535,E,2,09,1.0,1650.6,M,42.0,M,,","",-999,0,-0.64,0.506,41.48,-1.342,38.96,0.615
"2026-04-22 06:00:00",84,1436,12.91,"2026-04-22 05:46:00",1.466,842,-1.281,2.644,60,3.947,6,23.45,0.6,9,1650,2,0,0,"NAN",0.42,"$GPRMC,060003,A,6003.9469,N,00623.4534,E,000.0,132.5,220426,000.6,E","$GPGGA,060003,6003.9469,N,00623.4534,E,2,09,1.0,1649.6,M,42.0,M,,","",-999,0,-0.761,0.489,42.58,-1.456,39.56,0.424
"2026-04-22 06:15:00",85,1436,12.96,"2026-04-22 06:01:00",1.838,842,-1.399,2.661,60,3.947,6,23.45,0.6,10,1650,2,0,0,"NAN",0.37,"$GPRMC,061503,A,6003.9471,N,00623.4528,E,000.0,132.5,220426,000.6,E","$GPGGA,061503,6003.9471,N,00623.4528,E,2,10,1.0,1650.4,M,42.0,M,,","",-999,0,-1.069,0.136,44.23,-1.8,40.91,0.175
"2026-04-22 06:30:00",86,1436,12.99,"2026-04-22 06:18:00",1.757,842,-1.127,2.304,60,3.947,6,23.45,0.6,10,1651,2,0,0,"NAN",0.38,"$GPRMC,063003,A,6003.9474,N,00623.4538,E,000.0,132.5,220426,000.6,E","$GPGGA,063003,6003.9474,N,00623.4538,E,2,10,0.9,1651.1,M,42.0,M,,","",-999,0,-1.282,-0.136,45.93,-2.01,42.35,0.061
"2026-04-22 06:45:00",87,1436,13.02,"2026-04-22 06:31:00",1.493,842,-1.239,2.43,60,3.948,6,23.45,0.6,10,1652,2,0,0,"NAN",0.39,"$GPRMC,064503,A,6003.9477,N,00623.4540,E,000.0,132.5,220426,000.6,E","$GPGGA,064503,6003.9477,N,00623.4540,E,2,10,0.9,1651.7,M,42.0,M,,","",-999,0,-1.092,-0.184,46.74,-1.756,43.67,-0.06
"2026-04-22 07:00:00",88,1436,13.13,"2026-04-22 06:46:00",1.589,842,-1.263,2.525,60,3.948,6,23.45,0.6,9,1651,2,0,0,"NAN",0.39,"$GPRMC,070003,A,6003.9477,N,00623.4543,E,000.0,132.5,220426,000.6,E","$GPGGA,070003,6003.9477,N,00623.4543,E,2,09,0.8,1651.3,M,42.0,M,,","",-999,0,-0.905,0.059,48.92,-1.592,46.17,-0.041
"2026-04-22 07:15:00",89,1436,13.27,"2026-04-22 07:01:00",1.892,842,-1.17,2.636,60,3.948,6,23.45,0.6,11,1650,2,0,0,"NAN",0.38,"$GPRMC,071503,A,6003.9478,N,00623.4547,E,000.0,132.5,220426,000.6,E","$GPGGA,071503,6003.9478,N,00623.4547,E,2,11,0.8,1650.3,M,42.0,M,,","",-999,0,-0.865,-0.089,49.61,-1.611,47.17,-0.148
"2026-04-22 07:30:00",90,1436,13.45,"2026-04-22 07:16:00",2.25,842,-1.23,2.61,60,3.947,6,23.46,0.6,12,1650,2,0,0,"NAN",0.39,"$GPRMC,073003,A,6003.9471,N,00623.4550,E,000.0,132.5,220426,000.6,E","$GPGGA,073003,6003.9471,N,00623.4550,E,2,12,0.7,1650.3,M,42.0,M,,","",-999,0,-1.295,-0.623,53.35,-1.934,50.96,-0.478
"2026-04-22 07:45:00",91,1436,13.6,"2026-04-22 07:31:00",2.38,842,-1.06,2.644,60,3.947,6,23.46,0.6,12,1651,2,0,0,"NAN",0.37,"$GPRMC,074503,A,6003.9467,N,00623.4558,E,000.0,132.5,220426,000.6,E","$GPGGA,074503,6003.9467,N,00623.4558,E,2,12,0.8,1651.0,M,42.0,M,,","",-999,0,-1.12,-0.878,54.89,-1.813,52.61,-0.471
"2026-04-22 08:00:00",92,1436,13.73,"2026-04-22 07:46:00",2.69,842,-1.028,2.514,60,3.947,6,23.46,0.6,12,1650,2,0,0,"NAN",0.36,"$GPRMC,080003,A,6003.9468,N,00623.4550,E,000.0,132.5,220426,000.6,E","$GPGGA,080003,6003.9468,N,00623.4550,E,2,12,0.8,1649.7,M,42.0,M,,","",-999,0,-0.891,-0.379,52.32,-1.56,49.8,-0.389
"2026-04-22 08:15:00",93,1436,13.87,"2026-04-22 08:01:00",3.002,842,-1.169,2.67,60,3.947,6,23.45,0.6,12,1647,2,0,0,"NAN",0.36,"$GPRMC,081503,A,6003.9467,N,00623.4544,E,000.0,132.5,220426,000.6,E","$GPGGA,081503,6003.9467,N,00623.4544,E,2,12,0.8,1647.3,M,42.0,M,,","",-999,0,-1.014,-0.527,56.34,-1.642,53.93,-0.515
"2026-04-22 08:30:00",94,1436,14.19,"2026-04-22 08:23:00",3.389,842,-0.803,3.071,60,3.947,6,23.45,0.6,11,1646,2,0,0,"NAN",0.38,"$GPRMC,083003,A,6003.9469,N,00623.4544,E,000.0,132.5,220426,000.6,E","$GPGGA,083003,6003.9469,N,00623.4544,E,2,11,0.7,1646.2,M,42.0,M,,","",-999,0,-0.813,-0.346,61,-1.446,59.16,-0.427
"2026-04-22 08:45:00",95,1436,14.23,"2026-04-22 08:32:00",3.482,842,-1.13,2.955,60,3.948,6,23.45,0.6,12,1647,2,0,0,"NAN",0.4,"$GPRMC,084503,A,6003.9476,N,00623.4546,E,000.0,132.5,220426,000.6,E","$GPGGA,084503,6003.9476,N,00623.4546,E,2,12,0.7,1646.7,M,42.0,M,,","",-999,0,-1.014,-0.55,62.48,-1.687,60.95,-0.585
"2026-04-22 09:00:00",96,1436,14.9,"2026-04-22 08:52:00",3.596,842,-1.163,2.778,60,3.948,6,23.45,0.6,9,1646,2,0,0,"NAN",0.39,"$GPRMC,090003,A,6003.9476,N,00623.4547,E,000.0,132.5,220426,000.6,E","$GPGGA,090003,6003.9476,N,00623.4547,E,2,09,0.9,1646.2,M,42.0,M,,","",-999,0,-1,-0.718,64.8,-1.585,62.98,-0.674
"2026-04-22 09:15:00",97,1436,14.89,"2026-04-22 09:01:00",3.774,842,-1.266,2.08,60,3.948,6,23.45,0.6,9,1647,2,0,0,"NAN",0.37,"$GPRMC,091503,A,6003.9478,N,00623.4547,E,000.0,132.5,220426,000.6,E","$GPGGA,091503,6003.9478,N,00623.4547,E,2,09,0.8,1646.5,M,42.0,M,,","",-999,0,-1.147,-0.955,65.59,-1.731,63.75,-0.636
"2026-04-22 09:30:00",98,1436,14.89,"2026-04-22 09:23:00",3.77,842,-1.055,2.588,60,3.948,6,23.46,0.6,11,1647,2,0,0,"NAN",0.41,"$GPRMC,093003,A,6003.9483,N,00623.4550,E,000.0,132.5,220426,000.6,E","$GPGGA,093003,6003.9483,N,00623.4550,E,2,11,0.8,1647.4,M,42.0,M,,","",-999,0,-1.176,-0.852,66.67,-1.718,64.23,-0.781
"2026-04-22 09:45:00",99,1436,14.89,"2026-04-22 09:34:00",3.695,842,-0.979,2.732,60,3.949,6,23.46,0.6,9,1648,2,0,0,"NAN",0.37,"$GPRMC,094503,A,6003.9485,N,00623.4554,E,000.0,132.5,220426,000.6,E","$GPGGA,094503,6003.9485,N,00623.4554,E,2,09,0.8,1647.7,M,42.0,M,,","",-999,0,-1.293,-0.817,67.59,-1.889,65.46,-0.946
"2026-04-22 10:00:00",100,1436,14.89,"2026-04-22 10:00:00",3.686,842,-1.087,2.786,60,3.948,6,23.46,0.6,8,1647,2,0,0,"NAN",0.41,"$GPRMC,100003,A,6003.9484,N,00623.4557,E,000.0,132.5,220426,000.6,E","$GPGGA,100003,6003.9484,N,00623.4557,E,2,08,0.8,1647.0,M,42.0,M,,","",-999,0,-1.105,-0.854,66.95,-1.801,64.83,-0.813
"2026-04-22 10:15:00",101,1436,14.92,"2026-04-22 10:07:00",3.756,842,-0.943,2.335,60,3.949,6,23.46,0.6,12,1647,2,0,0,"NAN",0.4,"$GPRMC,101503,A,6003.9487,N,00623.4565,E,000.0,132.5,220426,000.6,E","$GPGGA,101503,6003.9487,N,00623.4565,E,2,12,0.7,1647.4,M,42.0,M,,","",-999,0,-1.129,-0.879,64.47,-1.782,62.12,-0.712
"2026-04-22 10:30:00",102,1436,14.9,"2026-04-22 10:22:00",3.726,842,-1.079,2.615,60,3.949,6,23.46,0.6,11,1648,2,0,0,"NAN",0.42,"$GPRMC,103003,A,6003.9487,N,00623.4563,E,000.0,132.5,220426,000.6,E","$GPGGA,103003,6003.9487,N,00623.4563,E,2,11,0.8,1647.7,M,42.0,M,,","",-999,0,-0.981,-1.13,61.35,-1.56,58.49,-0.642
"2026-04-22 10:45:00",103,1436,14.28,"2026-04-22 10:42:00",3.79,842,-1.027,2.625,60,3.949,6,23.46,0.6,11,1648,2,0,0,"NAN",0.43,"$GPRMC,104503,A,6003.9486,N,00623.4560,E,000.0,132.5,220426,000.6,E","$GPGGA,104503,6003.9486,N,00623.4560,E,2,11,0.8,1647.9,M,42.0,M,,","",-999,0,-1,-0.672,62.34,-1.585,59.2,-0.667
"2026-04-22 11:00:00",104,1436,14.31,"2026-04-22 10:57:00",3.908,842,-0.851,2.615,60,3.949,6,23.46,0.6,12,1649,2,0,0,"NAN",0.39,"$GPRMC,110003,A,6003.9491,N,00623.4550,E,000.0,132.5,220426,000.6,E","$GPGGA,110003,6003.9491,N,00623.4550,E,2,12,0.7,1648.7,M,42.0,M,,","",-999,0,-0.99,-0.494,60.51,-1.623,57.38,-0.604
"2026-04-22 11:15:00",105,1436,14.31,"2026-04-22 11:10:00",3.937,842,-1.124,2.758,60,3.949,6,23.45,0.6,12,1648,2,0,0,"NAN",0.39,"$GPRMC,111503,A,6003.9489,N,00623.4546,E,000.0,132.5,220426,000.6,E","$GPGGA,111503,6003.9489,N,00623.4546,E,2,12,0.7,1648.4,M,42.0,M,,","",-999,0,-1.056,-0.722,55.68,-1.598,52.45,-0.674
"2026-04-22 11:30:00",106,1436,14.31,"2026-04-22 11:17:00",3.669,842,-1.114,2.522,60,3.949,6,23.45,0.6,12,1650,2,0,0,"NAN",0.4,"$GPRMC,113003,A,6003.9485,N,00623.4546,E,000.0,132.5,220426,000.6,E","$GPGGA,113003,6003.9485,N,00623.4546,E,2,12,0.7,1649.7,M,42.0,M,,","",-999,0,-1.21,-0.663,50.87,-1.801,46.64,-0.718
"2026-04-22 11:45:00",107,1436,14.31,"2026-04-22 11:31:00",3.471,842,-1.062,2.65,60,3.948,6,23.45,0.6,11,1649,2,0,0,"NAN",0.41,"$GPRMC,114503,A,6003.9484,N,00623.4540,E,000.0,132.5,220426,000.6,E","$GPGGA,114503,6003.9484,N,00623.4540,E,2,11,0.9,1648.8,M,42.0,M,,","",-999,0,-1.173,-0.685,53.73,-1.82,50.26,-0.68
"2026-04-22 12:00:00",108,1436,14.31,"2026-04-22 11:56:00",3.533,842,-1.046,2.631,60,3.948,6,23.45,0.6,11,1645,2,0,0,"NAN",0.43,"$GPRMC,120003,A,6003.9482,N,00623.4533,E,000.0,132.5,220426,000.6,E","$GPGGA,120003,6003.9482,N,00623.4533,E,2,11,0.8,1645.4,M,42.0,M,,","",-999,0,-0.878,-0.417,52.56,-1.554,49.01,-0.598
"2026-04-22 12:15:00",109,1436,14.31,"2026-04-22 12:01:00",3.684,842,-0.892,2.625,60,3.946,6,23.45,0.6,12,1650,2,0,0,"NAN",0.36,"$GPRMC,121503,A,6003.9460,N,00623.4535,E,000.0,000.0,220426,000.6,E","$GPGGA,121503,6003.9460,N,00623.4535,E,2,12,0.8,1650.4,M,42.0,M,,","",-999,0,-1,-0.61,52.18,-1.547,48.68,-0.623
"2026-04-22 12:30:00",110,1436,14.31,"2026-04-22 12:19:00",3.57,842,-1.214,2.634,60,3.949,6,23.45,0.6,9,1650,2,0,0,"NAN",0.3,"$GPRMC,123003,A,6003.9489,N,00623.4533,E,000.0,000.0,220426,000.6,E","$GPGGA,123003,6003.9489,N,00623.4533,E,2,09,0.8,1650.4,M,42.0,M,,","",-999,0,-1.056,-0.331,53.37,-1.649,49.82,-0.541
"2026-04-22 12:45:00",111,1436,14.31,"2026-04-22 12:37:00",3.26,842,-1.276,2.589,60,3.949,6,23.45,0.6,10,1649,2,0,0,"NAN",0.25,"$GPRMC,124503,A,6003.9492,N,00623.4523,E,000.0,000.0,220426,000.6,E","$GPGGA,124503,6003.9492,N,00623.4523,E,2,10,1.3,1649.4,M,42.0,M,,","",-999,0,-0.971,-0.511,53.49,-1.579,50.22,-0.427
"2026-04-22 13:00:00",112,1436,14.3,"2026-04-22 12:52:00",3.053,841,-1.078,2.736,60,3.949,6,23.45,0.6,10,1647,1,0,0,"NAN",0.37,"$GPRMC,130003,A,6003.9488,N,00623.4518,E,000.0,000.0,220426,000.6,E","$GPGGA,130003,6003.9488,N,00623.4518,E,1,10,0.9,1647.3,M,42.0,M,,","",-999,0,-0.65,-0.386,56.57,-1.313,53.6,-0.25
"2026-04-22 13:15:00",113,1436,14.31,"2026-04-22 13:03:00",2.956,841,-1.145,2.677,60,3.949,6,23.45,0.6,10,1643,2,0,0,"NAN",0.44,"$GPRMC,131503,A,6003.9487,N,00623.4521,E,000.0,000.0,220426,000.6,E","$GPGGA,131503,6003.9487,N,00623.4521,E,2,10,0.9,1642.7,M,42.0,M,,","",-999,0,-0.649,-0.037,60.52,-1.288,57.85,-0.332
"2026-04-22 13:30:00",114,1436,14.3,"2026-04-22 13:16:00",2.869,841,-0.796,2.763,60,3.947,6,23.45,0.6,10,1653,2,0,0,"NAN",0.32,"$GPRMC,133003,A,6003.9468,N,00623.4503,E,000.0,000.0,220426,000.6,E","$GPGGA,133003,6003.9468,N,00623.4503,E,2,10,0.8,1652.6,M,42.0,M,,","",-999,0,-0.517,-0.232,60.7,-1.18,58.29,-0.18
"2026-04-22 13:45:00",115,1436,14.3,"2026-04-22 13:34:00",2.813,841,-1.169,2.713,60,3.948,6,23.45,0.6,11,1650,2,0,0,"NAN",0.28,"$GPRMC,134503,A,6003.9477,N,00623.4518,E,000.0,000.0,220426,000.6,E","$GPGGA,134503,6003.9477,N,00623.4518,E,2,11,0.9,1650.3,M,42.0,M,,","",-999,0,-0.469,-0.111,60.81,-1.085,58.17,-0.041
"2026-04-22 14:00:00",116,1436,14.31,"2026-04-22 13:46:00",2.736,842,-1.161,2.593,60,3.949,6,23.45,0.6,11,1651,2,0,0,"NAN",0.37,"$GPRMC,140003,A,6003.9488,N,00623.4521,E,000.0,000.0,220426,000.6,E","$GPGGA,140003,6003.9488,N,00623.4521,E,2,11,0.8,1651.3,M,42.0,M,,","",-999,0,-0.503,-0.379,64.15,-1.174,61.36,-0.167
"2026-04-22 14:15:00",117,1436,14.3,"2026-04-22 14:01:00",2.685,842,-1.084,2.755,60,3.95,6,23.45,0.6,11,1653,2,0,0,"NAN",0.34,"$GPRMC,141503,A,6003.9495,N,00623.4513,E,000.0,000.0,220426,000.6,E","$GPGGA,141503,6003.9495,N,00623.4513,E,2,11,0.7,1652.7,M,42.0,M,,","",-999,0,-0.317,-0.068,61.57,-1.009,58.9,0.01
"2026-04-22 14:30:00",118,1436,14.3,"2026-04-22 14:27:00",2.692,842,-1.016,2.628,60,3.95,6,23.45,0.6,11,1654,2,0,0,"NAN",0.33,"$GPRMC,143003,A,6003.9496,N,00623.4506,E,000.0,000.0,220426,000.6,E","$GPGGA,143003,6003.9496,N,00623.4506,E,2,11,0.7,1653.9,M,42.0,M,,","",-999,0,-0.402,-0.137,63.12,-1.028,60.13,-0.148
"2026-04-22 14:45:00",119,1436,14.31,"2026-04-22 14:31:00",2.664,842,-1.345,2.537,60,3.95,6,23.45,0.6,10,1655,2,0,0,"NAN",0.47,"$GPRMC,144503,A,6003.9496,N,00623.4501,E,000.0,000.0,220426,000.6,E","$GPGGA,144503,6003.9496,N,00623.4501,E,2,10,0.8,1654.8,M,42.0,M,,","",-999,0,-0.385,-0.01,64.53,-1.016,61.77,-0.066
"2026-04-22 15:00:00",120,1436,14.31,"2026-04-22 14:47:00",2.624,842,-1.347,2.985,60,3.95,6,23.45,0.6,11,1655,2,0,0,"NAN",0.45,"$GPRMC,150003,A,6003.9496,N,00623.4501,E,000.0,000.0,220426,000.6,E","$GPGGA,150003,6003.9496,N,00623.4501,E,2,11,0.8,1654.9,M,42.0,M,,","",-999,0,-0.374,0.122,64.95,-1.047,62.75,-0.022
"2026-04-22 15:15:00",121,1436,14.31,"2026-04-22 15:01:00",2.597,842,-0.955,2.57,60,3.95,6,23.45,0.6,10,1655,2,0,0,"NAN",0.37,"$GPRMC,151503,A,6003.9496,N,00623.4499,E,000.0,000.0,220426,000.6,E","$GPGGA,151503,6003.9496,N,00623.4499,E,2,10,0.8,1655.4,M,42.0,M,,","",-999,0,-0.351,-0.114,67.28,-1.016,65.21,0.086
"2026-04-22 15:30:00",122,1436,14.31,"2026-04-22 15:18:00",2.577,842,-1.099,2.613,60,3.949,6,23.45,0.6,10,1654,2,0,0,"NAN",0.36,"$GPRMC,153003,A,6003.9494,N,00623.4503,E,000.0,000.0,220426,000.6,E","$GPGGA,153003,6003.9494,N,00623.4503,E,2,10,0.9,1653.7,M,42.0,M,,","",-999,0,-0.359,-0.082,69.61,-0.997,67.94,0.263
"2026-04-22 15:45:00",123,1436,14.31,"2026-04-22 15:33:00",2.449,842,-1.013,2.486,60,3.949,6,23.45,0.6,10,1653,2,0,0,"NAN",0.35,"$GPRMC,154503,A,6003.9489,N,00623.4503,E,000.0,000.0,220426,000.6,E","$GPGGA,154503,6003.9489,N,00623.4503,E,2,10,0.9,1652.5,M,42.0,M,,","",-999,0,-0.633,-0.175,73.62,-1.231,72.06,-0.155
"2026-04-22 16:00:00",124,1436,14.31,"2026-04-22 15:54:00",2.182,842,-1.103,2.626,60,3.948,6,23.45,0.6,10,1651,2,0,0,"NAN",0.32,"$GPRMC,160003,A,6003.9484,N,00623.4516,E,000.0,000.0,220426,000.6,E","$GPGGA,160003,6003.9484,N,00623.4516,E,2,10,0.8,1650.9,M,42.0,M,,","",-999,0,-0.899,-0.39,76.49,-1.497,74.99,-0.49
"2026-04-22 16:15:00",125,1436,14.31,"2026-04-22 16:07:00",1.847,842,-1.11,2.423,60,3.948,6,23.45,0.6,12,1651,2,0,0,"NAN",0.36,"$GPRMC,161503,A,6003.9482,N,00623.4519,E,000.0,000.0,220426,000.6,E","$GPGGA,161503,6003.9482,N,00623.4519,E,2,12,0.7,1650.5,M,42.0,M,,","",-999,0,-1.218,-0.382,79.31,-1.832,78.12,-0.693
"2026-04-22 16:30:00",126,1436,14.35,"2026-04-22 16:18:00",1.513,842,-0.974,2.491,60,3.948,6,23.45,0.6,10,1650,2,0,0,"NAN",0.4,"$GPRMC,163003,A,6003.9481,N,00623.4526,E,000.0,000.0,220426,000.6,E","$GPGGA,163003,6003.9481,N,00623.4526,E,2,10,0.8,1649.8,M,42.0,M,,","",-999,0,-1.282,-0.475,81.4,-1.902,80.2,-0.553
"2026-04-22 16:45:00",127,1436,14.35,"2026-04-22 16:43:00",1.195,842,-0.966,2.55,60,3.948,6,23.45,0.6,11,1649,2,0,0,"NAN",0.4,"$GPRMC,164503,A,6003.9481,N,00623.4526,E,000.0,000.0,220426,000.6,E","$GPGGA,164503,6003.9481,N,00623.4526,E,2,11,0.7,1649.0,M,42.0,M,,","",-999,0,-1.356,-0.691,83.3,-1.984,82.4,-0.712
"2026-04-22 17:00:00",128,1436,14.39,"2026-04-22 16:58:00",0.961,841,-1.093,2.457,60,3.948,6,23.45,0.6,12,1650,2,0,0,"NAN",0.42,"$GPRMC,170003,A,6003.9480,N,00623.4525,E,000.0,000.0,220426,000.6,E","$GPGGA,170003,6003.9480,N,00623.4525,E,2,12,0.7,1650.0,M,42.0,M,,","",-999,0,-1.35,-0.843,85.4,-1.972,84.7,-0.623
"2026-04-22 17:15:00",129,1436,14.39,"2026-04-22 17:09:00",0.837,841,-1.119,2.406,60,3.948,6,23.45,0.6,12,1650,2,0,0,"NAN",0.4,"$GPRMC,171503,A,6003.9480,N,00623.4525,E,000.0,000.0,220426,000.6,E","$GPGGA,171503,6003.9480,N,00623.4525,E,2,12,0.7,1650.2,M,42.0,M,,","",-999,0,-1.488,-0.893,87.5,-2.103,87.4,-0.691
"2026-04-22 17:30:00",130,1436,14.06,"2026-04-22 17:25:00",0.732,841,-1.017,2.347,60,3.948,6,23.45,0.6,11,1650,2,0,0,"NAN",0.51,"$GPRMC,173003,A,6003.9480,N,00623.4520,E,000.0,000.0,220426,000.6,E","$GPGGA,173003,6003.9480,N,00623.4520,E,2,11,0.8,1649.8,M,42.0,M,,","",-999,0,-1.666,-1.103,89.1,-2.323,89.1,-0.936
"2026-04-22 17:45:00",131,1436,13.81,"2026-04-22 17:43:00",0.56,841,-1.153,2.347,60,3.948,6,23.45,0.6,12,1648,2,0,0,"NAN",0.33,"$GPRMC,174503,A,6003.9479,N,00623.4511,E,000.0,000.0,220426,000.6,E","$GPGGA,174503,6003.9479,N,00623.4511,E,2,12,0.8,1647.6,M,42.0,M,,","",-999,0,-1.787,-0.934,89.6,-2.318,89.3,-0.937
"2026-04-22 18:00:00",132,1436,13.92,"2026-04-22 17:46:00",0.357,841,-0.974,2.338,60,3.948,6,23.45,0.6,12,1647,2,0,0,"NAN",0.35,"$GPRMC,180003,A,6003.9482,N,00623.4512,E,000.0,000.0,220426,000.6,E","$GPGGA,180003,6003.9482,N,00623.4512,E,2,12,0.7,1647.0,M,42.0,M,,","",-999,0,-1.798,-1,88.8,-2.442,88.3,-0.758
"2026-04-22 18:15:00",133,1436,14.06,"2026-04-22 18:15:00",0.123,841,-0.991,2.279,60,3.948,6,23.45,0.6,10,1648,2,0,0,"NAN",0.38,"$GPRMC,181503,A,6003.9480,N,00623.4514,E,000.0,000.0,220426,000.6,E","$GPGGA,181503,6003.9480,N,00623.4514,E,2,10,0.7,1648.2,M,42.0,M,,","",-999,0,-1.626,-0.712,88.6,-2.327,87.4,-0.624
"2026-04-22 18:30:00",134,1436,13.93,"2026-04-22 18:30:00",-0.108,841,-1.008,2.245,60,3.948,6,23.45,0.6,10,1648,2,0,0,"NAN",0.28,"$GPRMC,183003,A,6003.9479,N,00623.4512,E,000.0,000.0,220426,000.6,E","$GPGGA,183003,6003.9479,N,00623.4512,E,2,10,0.8,1647.8,M,42.0,M,,","",-999,0,-1.488,-0.792,87.2,-2.068,86.3,-0.72
"2026-04-22 18:45:00",135,1436,13.05,"2026-04-22 18:44:00",-0.344,841,-0.957,2.262,60,3.948,6,23.45,0.6,10,1648,2,0,0,"NAN",0.34,"$GPRMC,184503,A,6003.9479,N,00623.4511,E,000.0,000.0,220426,000.6,E","$GPGGA,184503,6003.9479,N,00623.4511,E,2,10,0.8,1647.6,M,42.0,M,,","",-999,0,-1.804,-1.144,90.6,-2.403,90.7,-1.042
"2026-04-22 19:00:00",136,1436,12.69,"2026-04-22 18:58:00",-0.538,841,-0.949,2.177,60,3.948,6,23.45,0.6,9,1647,2,0,0,"NAN",0.42,"$GPRMC,190003,A,6003.9482,N,00623.4514,E,000.0,000.0,220426,000.6,E","$GPGGA,190003,6003.9482,N,00623.4514,E,2,09,0.8,1646.8,M,42.0,M,,","",-999,0,-1.958,-1.149,92.4,-2.615,92.1,-1.007
"2026-04-22 19:15:00",137,1436,12.62,"2026-04-22 19:15:00",-0.692,841,-0.77,2.185,60,3.948,6,23.45,0.6,11,1647,2,0,0,"NAN",0.44,"$GPRMC,191503,A,6003.9479,N,00623.4517,E,000.0,000.0,220426,000.6,E","$GPGGA,191503,6003.9479,N,00623.4517,E,2,11,0.8,1646.6,M,42.0,M,,","",-999,0,-2.049,-1.006,92.6,-2.786,92.1,-0.988
"2026-04-22 19:30:00",138,1436,12.58,"2026-04-22 19:26:00",-0.801,841,-1.025,2.347,60,3.948,6,23.45,0.6,11,1646,2,0,0,"NAN",0.47,"$GPRMC,193003,A,6003.9475,N,00623.4510,E,000.0,000.0,220426,000.6,E","$GPGGA,193003,6003.9475,N,00623.4510,E,2,11,0.8,1646.3,M,42.0,M,,","",-999,0,-1.977,-0.914,90.4,-2.671,88.4,-1.284
"2026-04-22 19:45:00",139,1436,12.71,"2026-04-22 19:31:00",-0.947,841,-0.915,2.279,60,3.948,6,23.45,0.6,11,1646,2,0,0,"NAN",0.46,"$GPRMC,194503,A,6003.9475,N,00623.4505,E,000.0,000.0,220426,000.6,E","$GPGGA,194503,6003.9475,N,00623.4505,E,2,11,0.7,1646.0,M,42.0,M,,","",-999,0,-1.231,-0.387,78.27,-1.919,75.25,-0.431
"2026-04-22 20:00:00",140,1436,12.78,"2026-04-22 19:46:00",-1.092,842,-1.051,2.228,60,3.947,6,23.45,0.6,11,1648,2,0,0,"NAN",0.33,"$GPRMC,200003,A,6003.9473,N,00623.4507,E,000.0,000.0,220426,000.6,E","$GPGGA,200003,6003.9473,N,00623.4507,E,2,11,0.8,1647.5,M,42.0,M,,","",-999,0,-0.899,0.039,72.08,-1.536,70.13,-0.149
"2026-04-22 20:15:00",141,1436,12.79,"2026-04-22 20:10:00",-1.104,842,-0.923,2.372,60,3.947,6,23.45,0.6,11,1649,2,0,0,"NAN",0.44,"$GPRMC,201503,A,6003.9474,N,00623.4505,E,000.0,000.0,220426,000.6,E","$GPGGA,201503,6003.9474,N,00623.4505,E,2,11,0.8,1649.1,M,42.0,M,,","",-999,0,-0.647,0.277,67.52,-1.384,65.21,0.149
"2026-04-22 20:30:00",142,1436,12.79,"2026-04-22 20:19:00",-1,842,-1.085,2.398,60,3.948,6,23.45,0.6,11,1652,2,0,0,"NAN",0.41,"$GPRMC,203003,A,6003.9476,N,00623.4506,E,000.0,000.0,220426,000.6,E","$GPGGA,203003,6003.9476,N,00623.4506,E,2,11,0.8,1651.7,M,42.0,M,,","",-999,0,-0.276,1.052,58.11,-0.927,55.16,0.827
"2026-04-22 20:45:00",143,1436,12.79,"2026-04-22 20:42:00",-0.785,842,-1.136,2.364,60,3.948,6,23.45,0.6,11,1654,2,0,0,"NAN",0.5,"$GPRMC,204503,A,6003.9475,N,00623.4510,E,000.0,000.0,220426,000.6,E","$GPGGA,204503,6003.9475,N,00623.4510,E,2,11,0.8,1653.6,M,42.0,M,,","",-999,0,-0.147,1.107,52.38,-0.808,48.56,0.788
"2026-04-22 21:00:00",144,1436,12.79,"2026-04-22 21:00:00",-0.55,841,-1.008,2.44,60,3.947,6,23.45,0.6,10,1654,2,0,0,"NAN",0.32,"$GPRMC,210003,A,6003.9474,N,00623.4511,E,000.0,000.0,220426,000.6,E","$GPGGA,210003,6003.9474,N,00623.4511,E,2,10,0.8,1654.0,M,42.0,M,,","",-999,0,0.176,0.844,47.05,-0.527,44.15,0.993
"2026-04-22 21:15:00",145,1436,12.78,"2026-04-22 21:09:00",-0.278,841,-1.034,2.364,60,3.947,6,23.45,0.6,12,1653,2,0,0,"NAN",0.32,"$GPRMC,211503,A,6003.9474,N,00623.4512,E,000.0,000.0,220426,000.6,E","$GPGGA,211503,6003.9474,N,00623.4512,E,2,12,0.7,1652.8,M,42.0,M,,","",-999,0,0.254,1.166,43.66,-0.403,40.94,1.111
"2026-04-22 21:30:00",146,1436,12.78,"2026-04-22 21:22:00",-0.074,841,-1.034,2.279,60,3.948,6,23.45,0.6,10,1652,2,0,0,"NAN",0.45,"$GPRMC,213003,A,6003.9479,N,00623.4516,E,000.0,000.0,220426,000.6,E","$GPGGA,213003,6003.9479,N,00623.4516,E,2,10,1.0,1652.2,M,42.0,M,,","",-999,0,-0.08,0.856,45.73,-0.658,43,0.767
"2026-04-22 21:45:00",147,1436,12.78,"2026-04-22 21:41:00",-0.032,841,-1.017,2.432,60,3.948,6,23.45,0.6,10,1652,2,0,0,"NAN",0.47,"$GPRMC,214503,A,6003.9481,N,00623.4520,E,000.0,000.0,220426,000.6,E","$GPGGA,214503,6003.9481,N,00623.4520,E,2,10,0.9,1651.9,M,42.0,M,,","",-999,0,-0.146,0.757,46.49,-0.845,43.51,0.7
"2026-04-22 22:00:00",148,1436,12.78,"2026-04-22 21:56:00",0.002,842,-0.949,2.398,60,3.948,6,23.45,0.6,10,1653,2,0,0,"NAN",0.46,"$GPRMC,220003,A,6003.9483,N,00623.4522,E,000.0,000.0,220426,000.6,E","$GPGGA,220003,6003.9483,N,00623.4522,E,2,10,0.8,1652.7,M,42.0,M,,","",-999,0,0.092,0.779,43.49,-0.555,40.88,0.939
"2026-04-22 22:15:00",149,1436,12.78,"2026-04-22 22:01:00",0.025,842,-1.119,2.355,60,3.948,6,23.45,0.6,10,1652,2,0,0,"NAN",0.43,"$GPRMC,221503,A,6003.9476,N,00623.4526,E,000.0,000.0,220426,000.6,E","$GPGGA,221503,6003.9476,N,00623.4526,E,2,10,0.7,1652.2,M,42.0,M,,","",-999,0,0,0.866,44.22,-0.699,42.03,0.865
"2026-04-22 22:30:00",150,1436,12.78,"2026-04-22 22:28:00",0.104,842,-0.949,2.491,60,3.947,6,23.45,0.6,12,1652,2,0,0,"NAN",0.4,"$GPRMC,223003,A,6003.9470,N,00623.4527,E,000.0,000.0,220426,000.6,E","$GPGGA,223003,6003.9470,N,00623.4527,E,2,12,0.8,1652.1,M,42.0,M,,","",-999,0,0.589,1.265,43.44,-0.074,41.8,1.288
"2026-04-22 22:45:00",151,1436,12.78,"2026-04-22 22:32:00",0.178,842,-0.983,2.338,60,3.947,6,23.45,0.6,12,1651,2,0,0,"NAN",0.43,"$GPRMC,224503,A,6003.9465,N,00623.4524,E,000.0,000.0,220426,000.6,E","$GPGGA,224503,6003.9465,N,00623.4524,E,2,12,0.8,1651.3,M,42.0,M,,","",-999,0,-0.46,0.654,46.16,-0.999,43.47,0.464
"2026-04-22 23:00:00",152,1436,12.78,"2026-04-22 22:46:00",0.005,841,-0.983,2.398,60,3.946,6,23.45,0.6,11,1649,2,0,0,"NAN",0.5,"$GPRMC,230003,A,6003.9460,N,00623.4510,E,000.0,000.0,220426,000.6,E","$GPGGA,230003,6003.9460,N,00623.4510,E,2,11,0.8,1648.9,M,42.0,M,,","",-999,0,-0.296,0.524,43.63,-0.947,41.24,0.554
"2026-04-22 23:15:00",153,1436,12.77,"2026-04-22 23:01:00",-0.065,841,-1.076,2.389,60,3.946,6,23.45,0.6,12,1648,2,0,0,"NAN",0.49,"$GPRMC,231503,A,6003.9456,N,00623.4509,E,000.0,000.0,220426,000.6,E","$GPGGA,231503,6003.9456,N,00623.4509,E,2,12,0.8,1647.7,M,42.0,M,,","",-999,0,-0.296,0.485,41.42,-0.958,39,0.511
"2026-04-22 23:30:00",154,1436,12.77,"2026-04-22 23:16:00",-0.149,841,-1.034,2.304,60,3.945,6,23.45,0.6,11,1648,2,0,0,"NAN",0.32,"$GPRMC,233003,A,6003.9453,N,00623.4509,E,000.0,000.0,220426,000.6,E","$GPGGA,233003,6003.9453,N,00623.4509,E,2,11,0.8,1647.5,M,42.0,M,,","",-999,0,-0.448,0.415,40.87,-1.04,38.45,0.543
"2026-04-22 23:45:00",155,1436,12.77,"2026-04-22 23:32:00",-0.286,841,-1.025,2.228,60,3.945,6,23.45,0.6,12,1648,2,0,0,"NAN",0.42,"$GPRMC,234503,A,6003.9453,N,00623.4518,E,000.0,000.0,220426,000.6,E","$GPGGA,234503,6003.9453,N,00623.4518,E,2,12,0.7,1648.1,M,42.0,M,,","",-999,0,-0.749,0.151,43,-1.394,40.16,0.094
"2026-04-23 00:00:00",156,1436,12.77,"2026-04-22 23:54:00",-0.507,841,-0.94,2.228,60,3.946,6,23.45,0.6,12,1648,2,0,0,"NAN",0.46,"$GPRMC,000003,A,6003.9458,N,00623.4521,E,000.0,000.0,230426,000.6,E","$GPGGA,000003,6003.9458,N,00623.4521,E,2,12,0.7,1647.9,M,42.0,M,,","",-999,0,-1.419,-0.222,46.37,-2,43.15,-0.208
"2026-04-23 00:15:00",157,1436,12.77,"2026-04-23 00:12:00",-0.819,841,-1.093,2.389,60,3.946,6,23.45,0.6,11,1648,2,0,0,"NAN",0.48,"$GPRMC,001503,A,6003.9460,N,00623.4528,E,000.0,000.0,230426,000.6,E","$GPGGA,001503,6003.9460,N,00623.4528,E,2,11,0.7,1648.2,M,42.0,M,,","",-999,0,-1.58,-0.372,49.32,-2.335,45.41,-0.379
"2026-04-23 00:30:00",158,1436,12.77,"2026-04-23 00:20:00",-1.1,841,-1.042,2.228,60,3.946,6,23.45,0.6,11,1649,2,0,0,"NAN",0.39,"$GPRMC,003003,A,6003.9460,N,00623.4532,E,000.0,000.0,230426,000.6,E","$GPGGA,003003,6003.9460,N,00623.4532,E,2,11,0.9,1648.8,M,42.0,M,,","",-999,0,-1.791,-0.749,47.88,-2.357,43.73,-0.583
"2026-04-23 00:45:00",159,1436,12.77,"2026-04-23 00:44:00",-1.332,841,-1.076,2.287,60,3.946,6,23.45,0.6,11,1650,2,0,0,"NAN",0.49,"$GPRMC,004503,A,6003.9461,N,00623.4533,E,000.0,000.0,230426,000.6,E","$GPGGA,004503,6003.9461,N,00623.4533,E,2,11,0.8,1649.8,M,42.0,M,,","",-999,0,-1.692,-0.664,46.35,-2.397,42.42,-0.738
"2026-04-23 01:00:00",160,1436,12.77,"2026-04-23 00:56:00",-1.466,841,-1.034,2.483,60,3.947,6,23.45,0.6,10,1650,2,0,0,"NAN",0.41,"$GPRMC,010003,A,6003.9470,N,00623.4533,E,000.0,000.0,230426,000.6,E","$GPGGA,010003,6003.9470,N,00623.4533,E,2,10,0.8,1649.5,M,42.0,M,,","",-999,0,-2.19,-1.002,48.98,-2.776,45.26,-1.047
"2026-04-23 01:15:00",161,1436,12.76,"2026-04-23 01:04:00",-1.682,841,-0.821,2.075,60,3.947,6,23.45,0.6,11,1651,2,0,0,"NAN",0.43,"$GPRMC,011503,A,6003.9474,N,00623.4540,E,000.0,000.0,230426,000.6,E","$GPGGA,011503,6003.9474,N,00623.4540,E,2,11,0.9,1650.5,M,42.0,M,,","",-999,0,-2.231,-1.011,52.2,-2.984,48.17,-1.179
"2026-04-23 01:30:00",162,1436,12.77,"2026-04-23 01:16:00",-1.818,841,-1.059,2.296,60,3.947,6,23.45,0.6,11,1651,2,0,0,"NAN",0.47,"$GPRMC,013003,A,6003.9474,N,00623.4538,E,000.0,000.0,230426,000.6,E","$GPGGA,013003,6003.9474,N,00623.4538,E,2,11,0.7,1651.2,M,42.0,M,,","",-999,0,-2.016,-0.933,50.14,-2.616,46.57,-0.964
"2026-04-23 01:45:00",163,1436,12.76,"2026-04-23 01:45:00",-1.877,841,-0.915,2.296,60,3.947,6,23.45,0.6,12,1651,2,0,0,"NAN",0.46,"$GPRMC,014503,A,6003.9470,N,00623.4542,E,000.0,000.0,230426,000.6,E","$GPGGA,014503,6003.9470,N,00623.4542,E,2,12,0.7,1651.0,M,42.0,M,,","",-999,0,-2.013,-1.172,49.39,-2.616,45.79,-1.141
"2026-04-23 02:00:00",164,1436,12.76,"2026-04-23 01:51:00",-1.927,841,-0.872,2.372,60,3.947,6,23.45,0.6,11,1650,2,0,0,"NAN",0.39,"$GPRMC,020003,A,6003.9466,N,00623.4542,E,000.0,000.0,230426,000.6,E","$GPGGA,020003,6003.9466,N,00623.4542,E,2,11,0.7,1650.0,M,42.0,M,,","",-999,0,-1.977,-0.812,47.92,-2.654,44.07,-0.957
"2026-04-23 02:15:00",165,1436,12.76,"2026-04-23 02:10:00",-1.91,841,-0.643,2.449,60,3.946,6,23.45,0.6,12,1649,2,0,0,"NAN",0.42,"$GPRMC,021503,A,6003.9464,N,00623.4544,E,000.0,000.0,230426,000.6,E","$GPGGA,021503,6003.9464,N,00623.4544,E,2,12,0.7,1649.1,M,42.0,M,,","",-999,0,-1.875,-0.965,46.2,-2.496,42.74,-0.97
"2026-04-23 02:30:00",166,1436,12.76,"2026-04-23 02:16:00",-1.917,841,-1.093,2.143,60,3.946,6,23.45,0.6,12,1649,2,0,0,"NAN",0.53,"$GPRMC,023003,A,6003.9462,N,00623.4539,E,000.0,000.0,230426,000.6,E","$GPGGA,023003,6003.9462,N,00623.4539,E,2,12,0.7,1648.9,M,42.0,M,,","",-999,0,-2.333,-1.532,49.78,-2.933,46.2,-1.356
"2026-04-23 02:45:00",167,1436,12.76,"2026-04-23 02:31:00",-1.955,841,-0.949,2.338,60,3.946,6,23.45,0.6,12,1650,2,0,0,"NAN",0.47,"$GPRMC,024503,A,6003.9463,N,00623.4533,E,000.0,000.0,230426,000.6,E","$GPGGA,024503,6003.9463,N,00623.4533,E,2,12,0.6,1649.5,M,42.0,M,,","",-999,0,-2.013,-1.14,48.16,-2.667,44.98,-1.204
"2026-04-23 03:00:00",168,1436,12.76,"2026-04-23 02:46:00",-1.973,840,-0.923,2.177,60,3.947,6,23.45,0.6,9,1649,2,0,0,"NAN",0.41,"$GPRMC,030003,A,6003.9466,N,00623.4538,E,000.0,000.0,230426,000.6,E","$GPGGA,030003,6003.9466,N,00623.4538,E,2,09,0.7,1649.1,M,42.0,M,,","",-999,0,-2.332,-1.382,49.82,-2.946,46.57,-1.458
"2026-04-23 03:15:00",169,1436,12.76,"2026-04-23 03:01:00",-2.042,840,-1.051,2.296,60,3.947,6,23.45,0.6,9,1650,2,0,0,"NAN",0.44,"$GPRMC,031503,A,6003.9468,N,00623.4544,E,000.0,000.0,230426,000.6,E","$GPGGA,031503,6003.9468,N,00623.4544,E,2,09,0.8,1649.8,M,42.0,M,,","",-999,0,-2.487,-1.533,49.27,-3.193,46.05,-1.679
"2026-04-23 03:30:00",170,1436,12.76,"2026-04-23 03:16:00",-2.079,840,-1.212,2.219,60,3.947,6,23.45,0.6,9,1651,2,0,0,"NAN",0.49,"$GPRMC,033003,A,6003.9467,N,00623.4541,E,000.0,000.0,230426,000.6,E","$GPGGA,033003,6003.9467,N,00623.4541,E,2,09,1.0,1651.3,M,42.0,M,,","",-999,0,-2.199,-1.369,46.62,-2.8,43.62,-1.483
"2026-04-23 03:45:00",171,1436,12.76,"2026-04-23 03:31:00",-2.067,840,-0.923,2.789,60,3.948,6,23.45,0.6,9,1653,2,0,0,"NAN",0.47,"$GPRMC,034503,A,6003.9476,N,00623.4528,E,000.0,000.0,230426,000.6,E","$GPGGA,034503,6003.9476,N,00623.4528,E,2,09,1.0,1652.9,M,42.0,M,,","",-999,0,-2.095,-1.16,45.29,-2.781,42.2,-1.394
"2026-04-23 04:00:00",172,1436,12.76,"2026-04-23 03:46:00",-2.037,840,-0.966,2.27,60,3.948,6,23.45,0.6,10,1654,2,0,0,"NAN",0.56,"$GPRMC,040003,A,6003.9483,N,00623.4522,E,000.0,000.0,230426,000.6,E","$GPGGA,040003,6003.9483,N,00623.4522,E,2,10,1.0,1654.3,M,42.0,M,,","",-999,0,-2.53,-1.512,48.5,-3.186,45.49,-1.838
"2026-04-23 04:15:00",173,1436,12.75,"2026-04-23 04:01:00",-2.098,840,-0.915,2.865,60,3.948,6,23.45,0.6,10,1655,2,0,0,"NAN",0.45,"$GPRMC,041503,A,6003.9480,N,00623.4531,E,000.0,000.0,230426,000.6,E","$GPGGA,041503,6003.9480,N,00623.4531,E,2,10,0.9,1655.0,M,42.0,M,,","",-999,0,-2.734,-1.915,49.13,-3.433,45.84,-1.958
"2026-04-23 04:30:00",174,1436,12.76,"2026-04-23 04:16:00",-2.201,840,-0.974,2.585,60,3.947,6,23.45,0.6,10,1654,2,0,0,"NAN",0.52,"$GPRMC,043003,A,6003.9473,N,00623.4541,E,000.0,000.0,230426,000.6,E","$GPGGA,043003,6003.9473,N,00623.4541,E,2,10,0.8,1654.3,M,42.0,M,,","",-999,0,-3.211,-2.295,51.57,-3.794,48.3,-2.319
"2026-04-23 04:45:00",175,1436,12.76,"2026-04-23 04:31:00",-2.347,840,-0.77,2.177,60,3.947,6,23.45,0.6,10,1653,2,0,0,"NAN",0.59,"$GPRMC,044503,A,6003.9467,N,00623.4545,E,000.0,000.0,230426,000.6,E","$GPGGA,044503,6003.9467,N,00623.4545,E,2,10,0.8,1653.3,M,42.0,M,,","",-999,0,-3.021,-1.996,49.49,-3.744,46.06,-2.312
"2026-04-23 05:00:00",176,1436,12.77,"2026-04-23 04:47:00",-2.323,840,-0.804,2.338,60,3.947,6,23.45,0.6,10,1652,2,0,0,"NAN",0.63,"$GPRMC,050003,A,6003.9465,N,00623.4540,E,000.0,000.0,230426,000.6,E","$GPGGA,050003,6003.9465,N,00623.4540,E,2,10,0.8,1652.3,M,42.0,M,,","",-999,0,-3.138,-2.39,50,-3.832,47.04,-2.407
"2026-04-23 05:15:00",177,1436,12.79,"2026-04-23 05:01:00",-2.27,840,-0.923,2.024,60,3.947,6,23.45,0.6,11,1652,2,0,0,"NAN",0.53,"$GPRMC,051503,A,6003.9467,N,00623.4533,E,000.0,000.0,230426,000.6,E","$GPGGA,051503,6003.9467,N,00623.4533,E,2,11,0.7,1651.6,M,42.0,M,,","",-999,0,-3.441,-2.45,52.63,-4.162,49.28,-2.768
"2026-04-23 05:30:00",178,1436,12.82,"2026-04-23 05:16:00",-2.079,840,-0.787,2.194,60,3.947,6,23.45,0.6,10,1651,2,0,0,"NAN",0.48,"$GPRMC,053003,A,6003.9473,N,00623.4533,E,000.0,000.0,230426,000.6,E","$GPGGA,053003,6003.9473,N,00623.4533,E,2,10,0.8,1651.3,M,42.0,M,,","",-999,0,-3.655,-2.796,54.23,-4.358,50.62,-2.775
"2026-04-23 05:45:00",179,1436,12.85,"2026-04-23 05:31:00",-1.822,840,-1.093,2.381,60,3.947,6,23.45,0.6,9,1651,2,0,0,"NAN",0.53,"$GPRMC,054503,A,6003.9472,N,00623.4532,E,000.0,000.0,230426,000.6,E","$GPGGA,054503,6003.9472,N,00623.4532,E,2,09,1.0,1650.8,M,42.0,M,,","",-999,0,-2.925,-2.515,48.53,-3.731,45.06,-2.262
"2026-04-23 06:00:00",180,1436,12.89,"2026-04-23 05:46:00",-1.183,840,-1.017,2.279,60,3.947,6,23.45,0.6,10,1651,2,0,0,"NAN",0.53,"$GPRMC,060003,A,6003.9468,N,00623.4533,E,000.0,000.0,230426,000.6,E","$GPGGA,060003,6003.9468,N,00623.4533,E,2,10,1.0,1651.4,M,42.0,M,,","",-999,0,-2.684,-1.804,44.92,-3.376,41.14,-2.008
"2026-04-23 06:15:00",181,1436,12.95,"2026-04-23 06:01:00",-0.587,840,-0.813,2.517,60,3.947,6,23.45,0.6,10,1653,2,0,0,"NAN",0.63,"$GPRMC,061503,A,6003.9471,N,00623.4528,E,000.0,000.0,230426,000.6,E","$GPGGA,061503,6003.9471,N,00623.4528,E,2,10,1.0,1652.7,M,42.0,M,,","",-999,0,-2.77,-1.923,44.41,-3.436,40.38,-1.909
"2026-04-23 06:30:00",182,1436,13,"2026-04-23 06:16:00",-0.024,840,-1.187,2.423,60,3.947,6,23.45,0.6,10,1654,2,0,0,"NAN",0.63,"$GPRMC,063003,A,6003.9473,N,00623.4535,E,000.0,000.0,230426,000.6,E","$GPGGA,063003,6003.9473,N,00623.4535,E,2,10,0.9,1653.6,M,42.0,M,,","",-999,0,-2.378,-1.748,40.86,-3.042,37.21,-1.624
"2026-04-23 06:45:00",183,1436,13.07,"2026-04-23 06:31:00",0.466,840,-0.923,2.687,60,3.948,6,23.45,0.6,9,1654,2,0,0,"NAN",0.48,"$GPRMC,064503,A,6003.9477,N,00623.4536,E,000.0,000.0,230426,000.6,E","$GPGGA,064503,6003.9477,N,00623.4536,E,2,09,1.3,1654.1,M,42.0,M,,","",-999,0,-2.178,-1.374,38.16,-2.882,34.18,-1.527
"2026-04-23 07:00:00",184,1436,13.14,"2026-04-23 06:46:00",0.906,840,-0.719,2.568,60,3.948,6,23.45,0.6,9,1653,2,0,0,"NAN",0.44,"$GPRMC,070003,A,6003.9480,N,00623.4537,E,000.0,000.0,230426,000.6,E","$GPGGA,070003,6003.9480,N,00623.4537,E,2,09,0.8,1653.1,M,42.0,M,,","",-999,0,-1.961,-1.269,36.84,-2.611,33.21,-1.326
"2026-04-23 07:15:00",185,1436,13.21,"2026-04-23 07:01:00",1.286,840,-1.17,2.389,60,3.948,6,23.45,0.6,12,1652,2,0,0,"NAN",0.42,"$GPRMC,071503,A,6003.9477,N,00623.4538,E,000.0,000.0,230426,000.6,E","$GPGGA,071503,6003.9477,N,00623.4538,E,2,12,0.7,1651.7,M,42.0,M,,","",-999,0,-2.005,-1.661,40.21,-2.721,36.85,-1.442
"2026-04-23 07:30:00",186,1436,13.3,"2026-04-23 07:16:00",1.559,840,-1.111,2.609,60,3.947,6,23.45,0.6,11,1652,2,0,0,"NAN",0.55,"$GPRMC,073003,A,6003.9469,N,00623.4541,E,000.0,000.0,230426,000.6,E","$GPGGA,073003,6003.9469,N,00623.4541,E,2,11,0.8,1652.1,M,42.0,M,,","",-999,0,-2.473,-1.833,46.59,-3.174,42.68,-1.908
"2026-04-23 07:45:00",187,1436,13.37,"2026-04-23 07:31:00",1.736,840,-1.077,2.499,60,3.947,6,23.45,0.6,12,1652,2,0,0,"NAN",0.56,"$GPRMC,074503,A,6003.9468,N,00623.4544,E,000.0,000.0,230426,000.6,E","$GPGGA,074503,6003.9468,N,00623.4544,E,2,12,0.8,1652.1,M,42.0,M,,","",-999,0,-2.515,-2.01,47.99,-3.143,44.1,-1.965
"2026-04-23 08:00:00",188,1436,13.43,"2026-04-23 07:46:00",1.881,840,-1.289,2.432,60,3.947,6,23.45,0.6,12,1651,2,0,0,"NAN",0.48,"$GPRMC,080003,A,6003.9467,N,00623.4538,E,000.0,000.0,230426,000.6,E","$GPGGA,080003,6003.9467,N,00623.4538,E,2,12,0.8,1650.8,M,42.0,M,,","",-999,0,-2.381,-1.728,46.84,-3.073,43.1,-1.953
