"TOA5","CR1000_1436_Folgefonna_Modem","CR1000","E10522","CR1000.Std.29","CPU:Calibration_folgefonna_station_code_1436_040926.CR1","14757","Table15min"
"TIMESTAMP","RECORD","ID","BattV_Min","BattV_TMn","PTemp_C_Avg","P","Tilt_X","Tilt_Y","Latitude_A","Latitude_B","Longitude_A","Longitude_B","MagVar","NumSats","Altitude","FixQual","MaxClockChange","NumClockChange","PPS","SecSinceGPRMC","NMEASent(1)","NMEASent(2)","GNSS_Time","Snow_Height","Signal_Quality","T_Avg","T_2_Avg","U_Avg","U_temp_Avg","U_2_Avg","U_temp_2_Avg"
"TS","RN","","Volts","Volts","Deg C","hPa","","","degrees","minutes","degrees","minutes","degrees","count","meters","code","milliseconds","count","microseconds","seconds","","","","","","","","","","",""
"","","Smp","Min","TMn","Avg","Smp","Smp","Smp","Smp","Smp","Smp","Smp","Smp","Smp","Smp","Smp","Smp","Smp","Smp","Smp","Smp","Smp","Smp","Smp","Smp","Avg","Avg","Avg","Avg","Avg","Avg"
"2026-04-26 00:45:00",447,1436,12.68,"2026-04-26 00:42:00",-11,832,-0.697,1.374,60,3.947,6,23.45,0.6,10,1651,2,0,0,"NAN",0.33,"$GPRMC,004504,A,6003.9465,N,00623.4528,E,000.0,000.0,260426,000.6,E","$GPGGA,004504,6003.9465,N,00623.4528,E,2,10,0.8,1650.9,M,42.0,M,,","",-999,0,-10.99,-10.42,83.6,-11.94,88.3,-10.64
"2026-04-26 01:00:00",448,1436,12.67,"2026-04-26 00:58:00",-11.01,832,-0.654,1.476,60,3.947,6,23.45,0.6,11,1651,2,0,0,"NAN",0.34,"$GPRMC,010004,A,6003.9470,N,00623.4529,E,000.0,000.0,260426,000.6,E","$GPGGA,010004,6003.9470,N,00623.4529,E,2,11,0.9,1650.7,M,42.0,M,,","",-999,0,-10.59,-10.86,81.5,-11.9,88,-10.9
"2026-04-26 01:15:00",449,1436,12.67,"2026-04-26 01:15:00",-11,832,-0.765,1.476,60,3.947,6,23.45,0.6,11,1650,2,0,0,"NAN",0.34,"$GPRMC,011504,A,6003.9468,N,00623.4532,E,000.0,000.0,260426,000.6,E","$GPGGA,011504,6003.9468,N,00623.4532,E,2,11,0.9,1649.9,M,42.0,M,,","",-999,0,-10.78,-10.6,80.8,-11.88,88.1,-10.98
"2026-04-26 01:30:00",450,1436,12.66,"2026-04-26 01:27:00",-11,832,-0.731,1.527,60,3.947,6,23.45,0.6,11,1649,2,0,0,"NAN",0.38,"$GPRMC,013004,A,6003.9469,N,00623.4536,E,000.0,000.0,260426,000.6,E","$GPGGA,013004,6003.9469,N,00623.4536,E,2,11,0.7,1649.3,M,42.0,M,,","",-999,0,-10.54,-10.72,79.89,-11.64,88.3,-10.88
"2026-04-26 01:45:00",451,1436,12.66,"2026-04-26 01:40:00",-10.98,832,-0.765,1.621,60,3.947,6,23.45,0.6,12,1648,2,0,0,"NAN",0.37,"$GPRMC,014504,A,6003.9465,N,00623.4544,E,000.0,000.0,260426,000.6,E","$GPGGA,014504,6003.9465,N,00623.4544,E,2,12,0.7,1648.3,M,42.0,M,,","",-999,0,-10.69,-10.55,80.4,-11.67,88.2,-10.91
"2026-04-26 02:00:00",452,1436,12.66,"2026-04-26 01:53:00",-10.95,833,-0.782,1.442,60,3.946,6,23.45,0.6,12,1648,2,0,0,"NAN",0.37,"$GPRMC,020004,A,6003.9462,N,00623.4540,E,000.0,000.0,260426,000.6,E","$GPGGA,020004,6003.9462,N,00623.4540,E,2,12,0.7,1648.1,M,42.0,M,,","",-999,0,-10.69,-10.54,79.22,-11.84,88.1,-10.87
"2026-04-26 02:15:00",453,1436,12.65,"2026-04-26 02:10:00",-10.89,833,-0.739,1.468,60,3.946,6,23.45,0.6,12,1647,2,0,0,"NAN",0.32,"$GPRMC,021504,A,6003.9459,N,00623.4538,E,000.0,000.0,260426,000.6,E","$GPGGA,021504,6003.9459,N,00623.4538,E,2,12,0.7,1647.3,M,42.0,M,,","",-999,0,-10.83,-11.1,79.15,-11.92,88,-10.98
"2026-04-26 02:30:00",454,1436,12.65,"2026-04-26 02:23:00",-10.87,833,-0.739,1.519,60,3.946,6,23.45,0.6,12,1646,2,0,0,"NAN",0.37,"$GPRMC,023004,A,6003.9457,N,00623.4535,E,000.0,000.0,260426,000.6,E","$GPGGA,023004,6003.9457,N,00623.4535,E,2,12,0.7,1645.9,M,42.0,M,,","",-999,0,-11.03,-10.78,79.74,-12.03,88.1,-11.01
"2026-04-26 02:45:00",455,1436,12.64,"2026-04-26 02:41:00",-10.88,833,-0.586,1.536,60,3.946,6,23.45,0.6,9,1646,2,0,0,"NAN",0.39,"$GPRMC,024504,A,6003.9458,N,00623.4536,E,000.0,000.0,260426,000.6,E","$GPGGA,024504,6003.9458,N,00623.4536,E,2,09,0.8,1646.2,M,42.0,M,,","",-999,0,-10.81,-10.73,79.97,-11.83,88.3,-10.81
"2026-04-26 03:00:00",456,1436,12.64,"2026-04-26 02:57:00",-10.9,833,-0.637,1.493,60,3.946,6,23.45,0.6,11,1648,2,0,0,"NAN",0.35,"$GPRMC,030004,A,6003.9462,N,00623.4539,E,000.0,000.0,260426,000.6,E","$GPGGA,030004,6003.9462,N,00623.4539,E,2,11,0.8,1648.1,M,42.0,M,,","",-999,0,-10.99,-10.86,77.72,-12.02,88.1,-10.88
"2026-04-26 03:15:00",457,1436,12.63,"2026-04-26 03:06:00",-10.9,833,-0.671,1.391,60,3.947,6,23.45,0.6,11,1650,2,0,0,"NAN",0.4,"$GPRMC,031504,A,6003.9468,N,00623.4541,E,000.0,000.0,260426,000.6,E","$GPGGA,031504,6003.9468,N,00623.4541,E,2,11,0.7,1649.6,M,42.0,M,,","",-999,0,-11.19,-10.92,77.88,-12.17,88,-10.97
"2026-04-26 03:30:00",458,1436,12.63,"2026-04-26 03:20:00",-10.97,833,-0.637,1.434,60,3.949,6,23.45,0.6,9,1650,2,0,0,"NAN",0.43,"$GPRMC,033004,A,6003.9485,N,00623.4521,E,000.0,000.0,260426,000.6,E","$GPGGA,033004,6003.9485,N,00623.4521,E,2,09,1.0,1649.7,M,42.0,M,,","",-999,0,-11.42,-11.05,78.27,-12.39,88.1,-10.96
"2026-04-26 03:45:00",459,1436,12.62,"2026-04-26 03:39:00",-11.05,833,-0.62,1.425,60,3.949,6,23.45,0.6,8,1651,2,0,0,"NAN",0.39,"$GPRMC,034504,A,6003.9486,N,00623.4520,E,000.0,000.0,260426,000.6,E","$GPGGA,034504,6003.9486,N,00623.4520,E,2,08,1.1,1650.7,M,42.0,M,,","",-999,0,-11.4,-10.82,78.54,-12.42,88,-11.06
"2026-04-26 04:00:00",460,1436,12.62,"2026-04-26 03:48:00",-11.08,833,-0.663,1.417,60,3.948,6,23.45,0.6,9,1656,2,0,0,"NAN",0.39,"$GPRMC,040004,A,6003.9484,N,00623.4541,E,000.0,000.0,260426,000.6,E","$GPGGA,040004,6003.9484,N,00623.4541,E,2,09,1.2,1655.5,M,42.0,M,,","",-999,0,-11.44,-10.64,80.4,-12.43,88.2,-10.95
"2026-04-26 04:15:00",461,1436,12.62,"2026-04-26 04:02:00",-10.96,833,-0.722,1.595,60,3.949,6,23.45,0.6,9,1656,2,0,0,"NAN",0.39,"$GPRMC,041504,A,6003.9494,N,00623.4530,E,000.0,000.0,260426,000.6,E","$GPGGA,041504,6003.9494,N,00623.4530,E,2,09,1.0,1655.9,M,42.0,M,,","",-999,0,-10.78,-10.31,83.2,-11.85,88.7,-10.51
"2026-04-26 04:30:00",462,1436,12.64,"2026-04-26 04:16:00",-10.48,833,-0.756,1.697,60,3.947,6,23.46,0.6,10,1657,2,0,0,"NAN",0.4,"$GPRMC,043004,A,6003.9474,N,00623.4568,E,000.0,000.0,260426,000.6,E","$GPGGA,043004,6003.9474,N,00623.4568,E,2,10,0.8,1657.0,M,42.0,M,,","",-999,0,-9.77,-9.61,81.8,-10.86,89,-10.12
"2026-04-26 04:45:00",463,1436,12.66,"2026-04-26 04:31:00",-9.63,833,-0.629,1.799,60,3.947,6,23.46,0.6,10,1655,2,0,0,"NAN",0.38,"$GPRMC,044504,A,6003.9466,N,00623.4551,E,000.0,000.0,260426,000.6,E","$GPGGA,044504,6003.9466,N,00623.4551,E,2,10,0.8,1655.4,M,42.0,M,,","",-999,0,-9.05,-9.49,74.87,-10.34,88.9,-9.86
"2026-04-26 05:00:00",464,1436,12.68,"2026-04-26 04:47:00",-8.4,833,-0.765,1.91,60,3.947,6,23.45,0.6,11,1657,2,0,0,"NAN",0.39,"$GPRMC,050004,A,6003.9470,N,00623.4546,E,000.0,000.0,260426,000.6,E","$GPGGA,050004,6003.9470,N,00623.4546,E,2,11,0.7,1657.0,M,42.0,M,,","",-999,0,-8.37,-9.16,68.94,-9.74,89.4,-9.4
"2026-04-26 05:15:00",465,1436,12.71,"2026-04-26 05:02:00",-7.288,833,-0.841,1.876,60,3.947,6,23.45,0.6,11,1657,2,0,0,"NAN",0.39,"$GPRMC,051504,A,6003.9474,N,00623.4543,E,000.0,000.0,260426,000.6,E","$GPGGA,051504,6003.9474,N,00623.4543,E,2,11,0.7,1656.6,M,42.0,M,,","",-999,0,-9.1,-9.45,66.05,-10.21,88.7,-9.48
"2026-04-26 05:30:00",466,1436,12.72,"2026-04-26 05:27:00",-6.688,833,-0.725,1.822,60,3.946,6,23.45,0.6,9,1648,2,0,0,"NAN",0.43,"$GPRMC,053004,A,6003.9458,N,00623.4543,E,000.0,000.0,260426,000.6,E","$GPGGA,053004,6003.9458,N,00623.4543,E,2,09,1.0,1648.3,M,42.0,M,,","",-999,0,-10,-9.45,71.12,-10.94,88.4,-9.81
"2026-04-26 05:45:00",467,1436,12.74,"2026-04-26 05:31:00",-6.536,833,-0.734,2.077,60,3.946,6,23.45,0.6,9,1649,2,0,0,"NAN",0.41,"$GPRMC,054504,A,6003.9462,N,00623.4537,E,000.0,000.0,260426,000.6,E","$GPGGA,054504,6003.9462,N,00623.4537,E,2,09,0.9,1648.5,M,42.0,M,,","",-999,0,-8.59,-9.23,71.14,-9.84,89,-9.54
"2026-04-26 06:00:00",468,1436,12.82,"2026-04-26 05:46:00",-5.553,833,-0.829,1.973,60,3.947,6,23.45,0.6,9,1652,2,0,0,"NAN",0.45,"$GPRMC,060004,A,6003.9471,N,00623.4527,E,000.0,000.0,260426,000.6,E","$GPGGA,060004,6003.9471,N,00623.4527,E,2,09,1.0,1652.3,M,42.0,M,,","",-999,0,-7.753,-8.89,55.84,-8.87,89.5,-9.06
"2026-04-26 06:15:00",469,1436,12.83,"2026-04-26 06:06:00",-5.384,833,-0.761,1.981,60,3.948,6,23.45,0.6,10,1649,2,0,0,"NAN",0.41,"$GPRMC,061504,A,6003.9475,N,00623.4531,E,000.0,000.0,260426,000.6,E","$GPGGA,061504,6003.9475,N,00623.4531,E,2,10,0.9,1649.4,M,42.0,M,,","",-999,0,-9.69,-9.96,61.73,-10.5,87.5,-10.06
"2026-04-26 06:30:00",470,1436,12.85,"2026-04-26 06:16:00",-5.85,833,-0.745,1.828,60,3.947,6,23.45,0.6,9,1644,2,0,0,"NAN",0.42,"$GPRMC,063004,A,6003.9468,N,00623.4532,E,000.0,000.0,260426,000.6,E","$GPGGA,063004,6003.9468,N,00623.4532,E,2,09,1.3,1644.3,M,42.0,M,,","",-999,0,-10.2,-9.81,73.34,-10.95,88.4,-10.13
"2026-04-26 06:45:00",471,1436,12.89,"2026-04-26 06:31:00",-6.055,833,-0.762,2.049,60,3.947,6,23.45,0.6,9,1648,2,0,0,"NAN",0.39,"$GPRMC,064504,A,6003.9472,N,00623.4536,E,000.0,000.0,260426,000.6,E","$GPGGA,064504,6003.9472,N,00623.4536,E,2,09,0.8,1647.6,M,42.0,M,,","",-999,0,-9.46,-9.68,74.53,-10.41,88.8,-9.79
"2026-04-26 07:00:00",472,1436,13.02,"2026-04-26 06:46:00",-5.171,834,-0.898,2.1,60,3.948,6,23.46,0.6,11,1652,2,0,0,"NAN",0.39,"$GPRMC,070004,A,6003.9482,N,00623.4555,E,000.0,000.0,260426,000.6,E","$GPGGA,070004,6003.9482,N,00623.4555,E,2,11,0.8,1652.4,M,42.0,M,,","",-999,0,-8.17,-9.12,62.54,-9.18,89.2,-9.22
"2026-04-26 07:15:00",473,1436,13.05,"2026-04-26 07:01:00",-4.401,834,-0.855,2.024,60,3.948,6,23.45,0.6,12,1651,2,0,0,"NAN",0.37,"$GPRMC,071504,A,6003.9483,N,00623.4546,E,000.0,000.0,260426,000.6,E","$GPGGA,071504,6003.9483,N,00623.4546,E,2,12,0.7,1650.8,M,42.0,M,,","",-999,0,-8.04,-9.03,57.51,-8.92,89,-9.06
"2026-04-26 07:30:00",474,1436,13.12,"2026-04-26 07:16:00",-3.639,834,-0.813,2.236,60,3.948,6,23.45,0.6,12,1651,2,0,0,"NAN",0.4,"$GPRMC,073004,A,6003.9482,N,00623.4548,E,000.0,000.0,260426,000.6,E","$GPGGA,073004,6003.9482,N,00623.4548,E,2,12,0.8,1650.7,M,42.0,M,,","",-999,0,-6.709,-8.23,55.31,-7.753,90.3,-8.45
"2026-04-26 07:45:00",475,1436,13.14,"2026-04-26 07:31:00",-3.027,834,-0.787,2.117,60,3.948,6,23.45,0.6,12,1648,2,0,0,"NAN",0.41,"$GPRMC,074504,A,6003.9479,N,00623.4547,E,000.0,000.0,260426,000.6,E","$GPGGA,074504,6003.9479,N,00623.4547,E,2,12,0.8,1648.2,M,42.0,M,,","",-999,0,-7.209,-8.76,54.61,-7.993,89.1,-8.65
"2026-04-26 08:00:00",476,1436,13.22,"2026-04-26 07:51:00",-2.723,834,-0.915,2.058,60,3.948,6,23.45,0.6,12,1646,2,0,0,"NAN",0.43,"$GPRMC,080004,A,6003.9475,N,00623.4547,E,000.0,000.0,260426,000.6,E","$GPGGA,080004,6003.9475,N,00623.4547,E,2,12,0.8,1645.9,M,42.0,M,,","",-999,0,-7.255,-8.89,59.36,-8.12,88.6,-9.02
"2026-04-26 08:15:00",477,1436,13.22,"2026-04-26 08:08:00",-2.487,834,-0.813,2.296,60,3.948,6,23.45,0.6,11,1645,2,0,0,"NAN",0.4,"$GPRMC,081504,A,6003.9476,N,00623.4544,E,000.0,000.0,260426,000.6,E","$GPGGA,081504,6003.9476,N,00623.4544,E,2,11,0.7,1645.1,M,42.0,M,,","",-999,0,-7.046,-8.58,57.89,-7.936,89.1,-8.91
"2026-04-26 08:30:00",478,1436,13.23,"2026-04-26 08:16:00",-2.274,834,-0.796,2.185,60,3.948,6,23.45,0.6,12,1646,2,0,0,"NAN",0.45,"$GPRMC,083004,A,6003.9482,N,00623.4546,E,000.0,000.0,260426,000.6,E","$GPGGA,083004,6003.9482,N,00623.4546,E,2,12,0.7,1645.6,M,42.0,M,,","",-999,0,-6.513,-8.14,51.01,-7.379,89.6,-8.45
"2026-04-26 08:45:00",479,1436,13.27,"2026-04-26 08:31:00",-2.164,834,-0.779,2.262,60,3.948,6,23.45,0.6,10,1646,2,0,0,"NAN",0.44,"$GPRMC,084504,A,6003.9484,N,00623.4536,E,000.0,000.0,260426,000.6,E","$GPGGA,084504,6003.9484,N,00623.4536,E,2,10,0.8,1645.5,M,42.0,M,,","",-999,0,-6.639,-8.32,51.14,-7.487,88.5,-8.65
"2026-04-26 09:00:00",480,1436,13.28,"2026-04-26 09:00:00",-1.913,834,-0.813,2.228,60,3.949,6,23.45,0.6,9,1646,2,0,0,"NAN",0.43,"$GPRMC,090004,A,6003.9486,N,00623.4541,E,000.0,000.0,260426,000.6,E","$GPGGA,090004,6003.9486,N,00623.4541,E,2,09,0.8,1645.5,M,42.0,M,,","",-999,0,-6.341,-8.06,54.4,-7.17,89.2,-8.54
"2026-04-26 09:15:00",481,1436,13.3,"2026-04-26 09:01:00",-1.71,834,-0.796,2.33,60,3.949,6,23.46,0.6,10,1646,2,0,0,"NAN",0.44,"$GPRMC,091504,A,6003.9492,N,00623.4550,E,000.0,000.0,260426,000.6,E","$GPGGA,091504,6003.9492,N,00623.4550,E,2,10,0.8,1645.8,M,42.0,M,,","",-999,0,-6.948,-8.31,61.94,-7.651,88.7,-8.53
"2026-04-26 09:30:00",482,1436,13.31,"2026-04-26 09:17:00",-1.988,834,-0.872,2.253,60,3.95,6,23.46,0.6,11,1645,2,0,0,"NAN",0.41,"$GPRMC,093004,A,6003.9495,N,00623.4552,E,000.0,000.0,260426,000.6,E","$GPGGA,093004,6003.9495,N,00623.4552,E,2,11,0.7,1645.3,M,42.0,M,,","",-999,0,-7.272,-8.47,76,-8.02,89.5,-8.34
"2026-04-26 09:45:00",483,1436,13.33,"2026-04-26 09:35:00",-2.281,834,-0.847,2.194,60,3.95,6,23.46,0.6,9,1645,2,0,0,"NAN",0.41,"$GPRMC,094504,A,6003.9497,N,00623.4560,E,000.0,000.0,260426,000.6,E","$GPGGA,094504,6003.9497,N,00623.4560,E,2,09,0.9,1644.9,M,42.0,M,,","",-999,0,-7.22,-8.02,74.77,-7.962,89.4,-8.21
"2026-04-26 10:00:00",484,1436,13.33,"2026-04-26 09:46:00",-2.356,835,-0.957,2.313,60,3.95,6,23.46,0.6,11,1645,2,0,0,"NAN",0.44,"$GPRMC,100004,A,6003.9496,N,00623.4565,E,000.0,000.0,260426,000.6,E","$GPGGA,100004,6003.9496,N,00623.4565,E,2,11,0.9,1645.2,M,42.0,M,,","",-999,0,-6.298,-7.706,56.8,-7.119,89.1,-8.26
"2026-04-26 10:15:00",485,1436,13.34,"2026-04-26 10:09:00",-2.253,835,-0.889,2.287,60,3.949,6,23.46,0.6,11,1646,2,0,0,"NAN",0.44,"$GPRMC,101504,A,6003.9494,N,00623.4563,E,000.0,000.0,260426,000.6,E","$GPGGA,101504,6003.9494,N,00623.4563,E,2,11,0.8,1645.6,M,42.0,M,,","",-999,0,-6.552,-7.669,66.29,-7.303,89.4,-7.987
"2026-04-26 10:30:00",486,1436,13.36,"2026-04-26 10:16:00",-2.125,835,-0.804,2.381,60,3.949,6,23.46,0.6,11,1646,2,0,0,"NAN",0.48,"$GPRMC,103004,A,6003.9493,N,00623.4563,E,000.0,000.0,260426,000.6,E","$GPGGA,103004,6003.9493,N,00623.4563,E,2,11,0.8,1645.6,M,42.0,M,,","",-999,0,-5.938,-7.431,66.33,-6.727,89.5,-7.715
"2026-04-26 10:45:00",487,1436,13.37,"2026-04-26 10:44:00",-1.74,835,-0.855,2.338,60,3.95,6,23.46,0.6,12,1646,2,0,0,"NAN",0.43,"$GPRMC,104504,A,6003.9499,N,00623.4552,E,000.0,000.0,260426,000.6,E","$GPGGA,104504,6003.9499,N,00623.4552,E,2,12,0.7,1645.9,M,42.0,M,,","",-999,0,-6.484,-7.393,71.02,-7.043,89.4,-7.677
"2026-04-26 11:00:00",488,1436,13.38,"2026-04-26 10:59:00",-1.594,835,-0.991,2.304,60,3.95,6,23.45,0.6,12,1647,2,0,0,"NAN",0.44,"$GPRMC,110004,A,6003.9500,N,00623.4545,E,000.0,000.0,260426,000.6,E","$GPGGA,110004,6003.9500,N,00623.4545,E,2,12,0.7,1646.6,M,42.0,M,,","",-999,0,-6.583,-6.849,77.35,-7.303,90.3,-7.506
"2026-04-26 11:15:00",489,1436,13.37,"2026-04-26 11:05:00",-1.604,835,-0.872,2.219,60,3.95,6,23.45,0.6,12,1647,2,0,0,"NAN",0.45,"$GPRMC,111504,A,6003.9499,N,00623.4540,E,000.0,000.0,260426,000.6,E","$GPGGA,111504,6003.9499,N,00623.4540,E,2,12,0.7,1646.5,M,42.0,M,,","",-999,0,-6.869,-7.579,79.06,-7.423,90.1,-7.512
"2026-04-26 11:30:00",490,1436,13.4,"2026-04-26 11:16:00",-1.729,835,-0.804,2.296,60,3.949,6,23.45,0.6,11,1645,2,0,0,"NAN",0.5,"$GPRMC,113004,A,6003.9492,N,00623.4537,E,000.0,000.0,260426,000.6,E","$GPGGA,113004,6003.9492,N,00623.4537,E,2,11,0.9,1644.7,M,42.0,M,,","",-999,0,-6.268,-7.284,77.09,-6.898,90.6,-7.252
"2026-04-26 11:45:00",491,1436,13.43,"2026-04-26 11:31:00",-1.553,835,-0.864,2.347,60,3.949,6,23.45,0.6,11,1642,2,0,0,"NAN",0.44,"$GPRMC,114504,A,6003.9494,N,00623.4538,E,000.0,000.0,260426,000.6,E","$GPGGA,114504,6003.9494,N,00623.4538,E,2,11,0.8,1642.4,M,42.0,M,,","",-999,0,-6.341,-7.274,77.91,-6.955,90.4,-7.259
"2026-04-26 12:00:00",492,1436,13.43,"2026-04-26 11:58:00",-0.689,835,-0.957,2.559,60,3.95,6,23.45,0.6,12,1640,2,0,0,"NAN",0.44,"$GPRMC,120004,A,6003.9500,N,00623.4529,E,000.0,000.0,260426,000.6,E","$GPGGA,120004,6003.9500,N,00623.4529,E,2,12,0.7,1639.8,M,42.0,M,,","",-999,0,-4.245,-6.601,60.03,-4.899,90.3,-6.622
"2026-04-26 12:15:00",493,1436,13.41,"2026-04-26 12:15:00",0.496,835,-1.008,2.491,60,3.949,6,23.45,0.6,9,1635,2,0,0,"NAN",0.42,"$GPRMC,121504,A,6003.9488,N,00623.4523,E,000.0,000.0,260426,000.6,E","$GPGGA,121504,6003.9488,N,00623.4523,E,2,09,0.7,1635.4,M,42.0,M,,","",-999,0,-5.15,-7.063,59.77,-5.699,87.3,-6.902
"2026-04-26 12:30:00",494,1436,13.44,"2026-04-26 12:20:00",1.11,835,-0.83,2.406,60,3.948,6,23.45,0.6,10,1633,2,0,0,"NAN",0.49,"$GPRMC,123004,A,6003.9476,N,00623.4529,E,000.0,000.0,260426,000.6,E","$GPGGA,123004,6003.9476,N,00623.4529,E,2,10,1.3,1633.0,M,42.0,M,,","",-999,0,-4.744,-6.4,67.16,-5.337,89.5,-6.489
"2026-04-26 12:45:00",495,1436,13.46,"2026-04-26 12:35:00",1.035,835,-0.958,2.397,60,3.948,6,23.45,0.6,8,1636,2,0,0,"NAN",0.5,"$GPRMC,124504,A,6003.9480,N,00623.4523,E,000.0,000.0,260426,000.6,E","$GPGGA,124504,6003.9480,N,00623.4523,E,2,08,1.0,1635.8,M,42.0,M,,","",-999,0,-5.727,-6.461,75.5,-6.264,89.7,-6.732
"2026-04-26 13:00:00",496,1436,13.52,"2026-04-26 12:48:00",0.543,836,-0.864,2.508,60,3.949,6,23.45,0.6,10,1639,2,0,0,"NAN",0.5,"$GPRMC,130004,A,6003.9487,N,00623.4516,E,000.0,000.0,260426,000.6,E","$GPGGA,130004,6003.9487,N,00623.4516,E,2,10,0.9,1638.7,M,42.0,M,,","",-999,0,-5.794,-6.531,75.84,-6.429,90.1,-6.859
"2026-04-26 13:15:00",497,1436,13.57,"2026-04-26 13:01:00",0.128,836,-0.906,2.466,60,3.949,6,23.45,0.6,10,1640,2,0,0,"NAN",0.5,"$GPRMC,131504,A,6003.9485,N,00623.4514,E,000.0,000.0,260426,000.6,E","$GPGGA,131504,6003.9485,N,00623.4514,E,2,10,1.0,1639.9,M,42.0,M,,","",-999,0,-5.62,-6.851,74.63,-6.279,90,-6.868
"2026-04-26 13:30:00",498,1436,13.5,"2026-04-26 13:21:00",-0.117,836,-0.94,2.33,60,3.949,6,23.45,0.6,12,1641,2,0,0,"NAN",0.5,"$GPRMC,133004,A,6003.9485,N,00623.4510,E,000.0,000.0,260426,000.6,E","$GPGGA,133004,6003.9485,N,00623.4510,E,2,12,0.7,1640.6,M,42.0,M,,","",-999,0,-5.904,-6.436,75.46,-6.489,89.7,-6.862
"2026-04-26 13:45:00",499,1436,13.56,"2026-04-26 13:31:00",-0.554,836,-0.898,2.372,60,3.95,6,23.45,0.6,11,1645,2,0,0,"NAN",0.49,"$GPRMC,134504,A,6003.9497,N,00623.4521,E,000.0,000.0,260426,000.6,E","$GPGGA,134504,6003.9497,N,00623.4521,E,2,11,0.8,1645.0,M,42.0,M,,","",-999,0,-5.872,-6.687,78.48,-6.476,90.3,-6.913
"2026-04-26 14:00:00",500,1436,13.56,"2026-04-26 13:47:00",-1.045,835,-0.804,2.228,60,3.951,6,23.45,0.6,11,1649,2,0,0,"NAN",0.49,"$GPRMC,140004,A,6003.9505,N,00623.4514,E,000.0,000.0,260426,000.6,E","$GPGGA,140004,6003.9505,N,00623.4514,E,2,11,0.7,1648.6,M,42.0,M,,","",-999,0,-5.911,-6.663,78.84,-6.439,90.3,-6.901
"2026-04-26 14:15:00",501,1436,13.48,"2026-04-26 14:13:00",-1.553,835,-0.957,2.16,60,3.951,6,23.45,0.6,10,1649,2,0,0,"NAN",0.5,"$GPRMC,141504,A,6003.9505,N,00623.4505,E,000.0,000.0,260426,000.6,E","$GPGGA,141504,6003.9505,N,00623.4505,E,2,10,0.8,1649.3,M,42.0,M,,","",-999,0,-6.192,-6.916,79.4,-6.698,90.4,-6.951
"2026-04-26 14:30:00",502,1436,13.45,"2026-04-26 14:23:00",-2.027,835,-0.728,2.287,60,3.95,6,23.45,0.6,10,1649,2,0,0,"NAN",0.49,"$GPRMC,143004,A,6003.9504,N,00623.4500,E,000.0,000.0,260426,000.6,E","$GPGGA,143004,6003.9504,N,00623.4500,E,2,10,0.8,1649.4,M,42.0,M,,","",-999,0,-6.357,-7.033,81.2,-7.075,90.4,-7.082
"2026-04-26 14:45:00",503,1436,13.44,"2026-04-26 14:43:00",-2.413,835,-0.728,2.032,60,3.951,6,23.45,0.6,11,1650,2,0,0,"NAN",0.5,"$GPRMC,144504,A,6003.9505,N,00623.4490,E,000.0,000.0,260426,000.6,E","$GPGGA,144504,6003.9505,N,00623.4490,E,2,11,0.8,1649.8,M,42.0,M,,","",-999,0,-6.514,-7.045,81.5,-7.151,90.1,-7.119
"2026-04-26 15:00:00",504,1436,13.43,"2026-04-26 14:57:00",-2.757,835,-0.736,2.032,60,3.951,6,23.45,0.6,11,1650,2,0,0,"NAN",0.5,"$GPRMC,150004,A,6003.9505,N,00623.4493,E,000.0,000.0,260426,000.6,E","$GPGGA,150004,6003.9505,N,00623.4493,E,2,11,0.8,1649.5,M,42.0,M,,","",-999,0,-6.694,-7.169,82.5,-7.366,90.1,-7.259
"2026-04-26 15:15:00",505,1436,13.43,"2026-04-26 15:01:00",-3.073,835,-0.719,2.041,60,3.95,6,23.45,0.6,9,1649,2,0,0,"NAN",0.51,"$GPRMC,151504,A,6003.9500,N,00623.4502,E,000.0,000.0,260426,000.6,E","$GPGGA,151504,6003.9500,N,00623.4502,E,2,09,1.1,1649.3,M,42.0,M,,","",-999,0,-6.794,-7.282,82.3,-7.487,90.3,-7.423
"2026-04-26 15:30:00",506,1436,13.42,"2026-04-26 15:28:00",-3.368,835,-0.736,2.032,60,3.949,6,23.45,0.6,10,1646,2,0,0,"NAN",0.49,"$GPRMC,153004,A,6003.9494,N,00623.4512,E,000.0,000.0,260426,000.6,E","$GPGGA,153004,6003.9494,N,00623.4512,E,2,10,0.9,1646.4,M,42.0,M,,","",-999,0,-6.768,-7.2,80.4,-7.385,90.2,-7.202
"2026-04-26 15:45:00",507,1436,13.43,"2026-04-26 15:31:00",-3.719,835,-0.736,2.024,60,3.95,6,23.45,0.6,11,1646,2,0,0,"NAN",0.5,"$GPRMC,154504,A,6003.9496,N,00623.4517,E,000.0,000.0,260426,000.6,E","$GPGGA,154504,6003.9496,N,00623.4517,E,2,11,0.7,1646.3,M,42.0,M,,","",-999,0,-6.903,-7.228,80.1,-7.651,90.4,-7.227
"2026-04-26 16:00:00",508,1436,13.53,"2026-04-26 15:48:00",-3.879,835,-0.719,2.041,60,3.949,6,23.45,0.6,11,1648,2,0,0,"NAN",0.51,"$GPRMC,160004,A,6003.9492,N,00623.4527,E,000.0,000.0,260426,000.6,E","$GPGGA,160004,6003.9492,N,00623.4527,E,2,11,0.8,1647.5,M,42.0,M,,","",-999,0,-6.387,-6.923,77.56,-7.107,90.5,-7.05
"2026-04-26 16:15:00",509,1436,13.4,"2026-04-26 16:14:00",-3.753,835,-0.736,2.024,60,3.949,6,23.45,0.6,9,1647,2,0,0,"NAN",0.47,"$GPRMC,161504,A,6003.9488,N,00623.4531,E,000.0,000.0,260426,000.6,E","$GPGGA,161504,6003.9488,N,00623.4531,E,2,09,0.8,1646.9,M,42.0,M,,","",-999,0,-6.381,-6.954,75.67,-7.005,90.1,-6.942
"2026-04-26 16:30:00",510,1436,13.4,"2026-04-26 16:16:00",-3.799,835,-0.728,2.024,60,3.949,6,23.45,0.6,11,1645,2,0,0,"NAN",0.5,"$GPRMC,163004,A,6003.9489,N,00623.4524,E,000.0,000.0,260426,000.6,E","$GPGGA,163004,6003.9489,N,00623.4524,E,2,11,0.7,1644.7,M,42.0,M,,","",-999,0,-7,-6.933,78.71,-7.664,89.6,-7.271
"2026-04-26 16:45:00",511,1436,13.54,"2026-04-26 16:43:00",-3.899,835,-0.736,2.024,60,3.949,6,23.45,0.6,12,1647,2,0,0,"NAN",0.5,"$GPRMC,164504,A,6003.9486,N,00623.4522,E,000.0,000.0,260426,000.6,E","$GPGGA,164504,6003.9486,N,00623.4522,E,2,12,0.7,1647.0,M,42.0,M,,","",-999,0,-6.335,-6.791,78.83,-7.062,90.7,-7.056
"2026-04-26 17:00:00",512,1436,13.52,"2026-04-26 16:51:00",-3.863,835,-0.736,2.024,60,3.949,6,23.45,0.6,12,1647,2,0,0,"NAN",0.51,"$GPRMC,170004,A,6003.9488,N,00623.4523,E,000.0,000.0,260426,000.6,E","$GPGGA,170004,6003.9488,N,00623.4523,E,2,12,0.7,1647.3,M,42.0,M,,","",-999,0,-6.384,-7.094,78.71,-7.024,90.3,-7.094
"2026-04-26 17:15:00",513,1436,13.74,"2026-04-26 17:01:00",-3.82,835,-0.736,2.024,60,3.949,6,23.45,0.6,12,1646,2,0,0,"NAN",0.52,"$GPRMC,171504,A,6003.9486,N,00623.4519,E,000.0,000.0,260426,000.6,E","$GPGGA,171504,6003.9486,N,00623.4519,E,2,12,0.8,1646.1,M,42.0,M,,","",-999,0,-6.269,-6.634,77.63,-6.98,90.5,-6.841
"2026-04-26 17:30:00",514,1436,13.56,"2026-04-26 17:29:00",-3.74,835,-0.736,2.024,60,3.948,6,23.45,0.6,12,1643,2,0,0,"NAN",0.51,"$GPRMC,173004,A,6003.9484,N,00623.4507,E,000.0,000.0,260426,000.6,E","$GPGGA,173004,6003.9484,N,00623.4507,E,2,12,0.8,1642.9,M,42.0,M,,","",-999,0,-6.725,-6.805,78.17,-7.29,90.1,-6.98
"2026-04-26 17:45:00",515,1436,13.51,"2026-04-26 17:34:00",-3.867,835,-0.736,2.024,60,3.949,6,23.45,0.6,11,1641,2,0,0,"NAN",0.51,"$GPRMC,174504,A,6003.9490,N,00623.4501,E,000.0,000.0,260426,000.6,E","$GPGGA,174504,6003.9490,N,00623.4501,E,2,11,0.7,1640.6,M,42.0,M,,","",-999,0,-7.405,-7.099,80.6,-8.01,90,-7.208
"2026-04-26 18:00:00",516,1436,13.54,"2026-04-26 18:00:00",-4.101,835,-0.736,2.024,60,3.949,6,23.45,0.6,11,1641,2,0,0,"NAN",0.5,"$GPRMC,180004,A,6003.9491,N,00623.4502,E,000.0,000.0,260426,000.6,E","$GPGGA,180004,6003.9491,N,00623.4502,E,2,11,0.7,1641.3,M,42.0,M,,","",-999,0,-7.534,-7.358,80.5,-8.28,90,-7.208
"2026-04-26 18:15:00",517,1436,13.29,"2026-04-26 18:15:00",-4.376,835,-0.736,2.024,60,3.949,6,23.45,0.6,11,1641,2,0,0,"NAN",0.5,"$GPRMC,181504,A,6003.9492,N,00623.4503,E,000.0,000.0,260426,000.6,E","$GPGGA,181504,6003.9492,N,00623.4503,E,2,11,0.8,1641.1,M,42.0,M,,","",-999,0,-7.957,-7.185,80.6,-8.57,89.6,-7.43
"2026-04-26 18:30:00",518,1436,13.28,"2026-04-26 18:17:00",-4.858,835,-0.736,2.024,60,3.949,6,23.45,0.6,10,1640,2,0,0,"NAN",0.51,"$GPRMC,183004,A,6003.9487,N,00623.4503,E,000.0,000.0,260426,000.6,E","$GPGGA,183004,6003.9487,N,00623.4503,E,2,10,0.8,1640.1,M,42.0,M,,","",-999,0,-7.983,-7.523,81.6,-8.73,89.6,-7.658
"2026-04-26 18:45:00",519,1436,13.26,"2026-04-26 18:38:00",-5.376,835,-0.736,2.024,60,3.949,6,23.45,0.6,10,1642,2,0,0,"NAN",0.53,"$GPRMC,184504,A,6003.9492,N,00623.4503,E,000.0,000.0,260426,000.6,E","$GPGGA,184504,6003.9492,N,00623.4503,E,2,10,0.8,1641.5,M,42.0,M,,","",-999,0,-7.467,-7.734,78.15,-8.19,89.4,-7.664
"2026-04-26 19:00:00",520,1436,13.25,"2026-04-26 19:00:00",-5.664,835,-0.736,2.024,60,3.949,6,23.45,0.6,11,1644,2,0,0,"NAN",0.5,"$GPRMC,190004,A,6003.9490,N,00623.4502,E,000.0,000.0,260426,000.6,E","$GPGGA,190004,6003.9490,N,00623.4502,E,2,11,0.8,1644.4,M,42.0,M,,","",-999,0,-7.112,-7.406,73.85,-7.873,89.6,-7.468
"2026-04-26 19:15:00",521,1436,13.19,"2026-04-26 19:14:00",-5.7,835,-0.736,2.024,60,3.949,6,23.45,0.6,11,1645,2,0,0,"NAN",0.52,"$GPRMC,191504,A,6003.9487,N,00623.4494,E,000.0,000.0,260426,000.6,E","$GPGGA,191504,6003.9487,N,00623.4494,E,2,11,0.8,1644.8,M,42.0,M,,","",-999,0,-6.86,-7.566,69.93,-7.594,87.8,-7.43
"2026-04-26 19:30:00",522,1436,13.15,"2026-04-26 19:30:00",-5.745,835,-0.736,2.024,60,3.948,6,23.45,0.6,11,1644,2,0,0,"NAN",0.53,"$GPRMC,193004,A,6003.9483,N,00623.4486,E,000.0,000.0,260426,000.6,E","$GPGGA,193004,6003.9483,N,00623.4486,E,2,11,0.7,1644.4,M,42.0,M,,","",-999,0,-7.198,-7.369,70.8,-7.854,87.3,-7.582
"2026-04-26 19:45:00",523,1436,13.13,"2026-04-26 19:43:00",-5.929,835,-0.736,2.024,60,3.948,6,23.45,0.6,11,1645,2,0,0,"NAN",0.57,"$GPRMC,194504,A,6003.9484,N,00623.4484,E,000.0,000.0,260426,000.6,E","$GPGGA,194504,6003.9484,N,00623.4484,E,2,11,0.8,1644.7,M,42.0,M,,","",-999,0,-7.369,-7.678,73.41,-8.09,87.8,-7.734
"2026-04-26 20:00:00",524,1436,13.12,"2026-04-26 19:56:00",-6.177,835,-0.736,2.024,60,3.949,6,23.45,0.6,11,1646,2,0,0,"NAN",0.6,"$GPRMC,200004,A,6003.9486,N,00623.4486,E,000.0,000.0,260426,000.6,E","$GPGGA,200004,6003.9486,N,00623.4486,E,2,11,0.8,1646.0,M,42.0,M,,","",-999,0,-7.343,-7.893,74.15,-8.13,87.8,-7.778
"2026-04-26 20:15:00",525,1436,13.11,"2026-04-26 20:05:00",-6.38,835,-0.745,2.024,60,3.949,6,23.45,0.6,11,1648,2,0,0,"NAN",0.59,"$GPRMC,201504,A,6003.9487,N,00623.4487,E,000.0,000.0,260426,000.6,E","$GPGGA,201504,6003.9487,N,00623.4487,E,2,11,0.8,1648.3,M,42.0,M,,","",-999,0,-7.103,-7.471,70.61,-7.929,86.6,-7.904
"2026-04-26 20:30:00",526,1436,13.1,"2026-04-26 20:30:00",-6.522,835,-0.745,2.007,60,3.949,6,23.45,0.6,11,1651,2,0,0,"NAN",0.59,"$GPRMC,203004,A,6003.9489,N,00623.4488,E,000.0,000.0,260426,000.6,E","$GPGGA,203004,6003.9489,N,00623.4488,E,2,11,0.8,1651.0,M,42.0,M,,","",-999,0,-7.319,-7.643,72.54,-8.02,88,-7.91
"2026-04-26 20:45:00",527,1436,13.1,"2026-04-26 20:41:00",-6.656,835,-0.753,2.024,60,3.949,6,23.45,0.6,10,1653,2,0,0,"NAN",0.57,"$GPRMC,204504,A,6003.9491,N,00623.4490,E,000.0,000.0,260426,000.6,E","$GPGGA,204504,6003.9491,N,00623.4490,E,2,10,0.8,1652.5,M,42.0,M,,","",-999,0,-6.917,-7.193,72.49,-7.782,87.4,-7.624
"2026-04-26 21:00:00",528,1436,13.08,"2026-04-26 20:59:00",-6.692,835,-0.753,2.007,60,3.949,6,23.45,0.6,11,1653,2,0,0,"NAN",0.58,"$GPRMC,210004,A,6003.9493,N,00623.4491,E,000.0,000.0,260426,000.6,E","$GPGGA,210004,6003.9493,N,00623.4491,E,2,11,0.8,1653.0,M,42.0,M,,","",-999,0,-6.835,-7.064,71.05,-7.616,87,-7.331
"2026-04-26 21:15:00",529,1436,13.08,"2026-04-26 21:15:00",-6.765,835,-0.736,2.007,60,3.949,6,23.45,0.6,10,1652,2,0,0,"NAN",0.56,"$GPRMC,211504,A,6003.9493,N,00623.4491,E,000.0,000.0,260426,000.6,E","$GPGGA,211504,6003.9493,N,00623.4491,E,2,10,1.0,1651.9,M,42.0,M,,","",-999,0,-6.999,-7.519,72.4,-7.764,88.4,-7.561
"2026-04-26 21:30:00",530,1436,13.07,"2026-04-26 21:28:00",-6.754,835,-0.753,2.015,60,3.949,6,23.45,0.6,10,1652,2,0,0,"NAN",0.56,"$GPRMC,213004,A,6003.9490,N,00623.4493,E,000.0,000.0,260426,000.6,E","$GPGGA,213004,6003.9490,N,00623.4493,E,2,10,0.9,1652.4,M,42.0,M,,","",-999,0,-6.351,-6.697,73.84,-7.224,88.9,-7.034
"2026-04-26 21:45:00",531,1436,13.07,"2026-04-26 21:44:00",-6.655,835,-0.753,2.016,60,3.949,6,23.45,0.6,11,1654,2,0,0,"NAN",0.53,"$GPRMC,214504,A,6003.9485,N,00623.4496,E,000.0,000.0,260426,000.6,E","$GPGGA,214504,6003.9485,N,00623.4496,E,2,11,0.7,1653.6,M,42.0,M,,","",-999,0,-6.27,-6.408,75.92,-7.053,89.2,-6.799
"2026-04-26 22:00:00",532,1436,13.06,"2026-04-26 21:56:00",-6.506,835,-0.736,2.024,60,3.948,6,23.45,0.6,10,1653,2,0,0,"NAN",0.55,"$GPRMC,220004,A,6003.9480,N,00623.4493,E,000.0,000.0,260426,000.6,E","$GPGGA,220004,6003.9480,N,00623.4493,E,2,10,0.7,1653.1,M,42.0,M,,","",-999,0,-6.033,-6.327,76.44,-6.877,89.1,-6.554
"2026-04-26 22:15:00",533,1436,13.06,"2026-04-26 22:15:00",-6.36,835,-0.736,2.024,60,3.947,6,23.45,0.6,12,1653,2,0,0,"NAN",0.59,"$GPRMC,221504,A,6003.9472,N,00623.4497,E,000.0,000.0,260426,000.6,E","$GPGGA,221504,6003.9472,N,00623.4497,E,2,12,0.7,1652.8,M,42.0,M,,","",-999,0,-6.07,-6.262,76.35,-6.883,88.3,-6.497
"2026-04-26 22:30:00",534,1436,13.05,"2026-04-26 22:29:00",-6.241,835,-0.745,2.024,60,3.947,6,23.45,0.6,10,1652,2,0,0,"NAN",0.61,"$GPRMC,223004,A,6003.9465,N,00623.4499,E,000.0,000.0,260426,000.6,E","$GPGGA,223004,6003.9465,N,00623.4499,E,2,10,0.9,1652.1,M,42.0,M,,","",-999,0,-5.917,-6.236,74.39,-6.739,88.5,-6.372
"2026-04-26 22:45:00",535,1436,13.05,"2026-04-26 22:38:00",-6.165,835,-0.736,2.024,60,3.946,6,23.45,0.6,11,1650,2,0,0,"NAN",0.59,"$GPRMC,224504,A,6003.9461,N,00623.4488,E,000.0,000.0,260426,000.6,E","$GPGGA,224504,6003.9461,N,00623.4488,E,2,11,0.8,1650.0,M,42.0,M,,","",-999,0,-5.973,-6.162,67.62,-6.682,86.9,-6.435
"2026-04-26 23:00:00",536,1436,13.04,"2026-04-26 22:59:00",-6.156,836,-0.736,2.024,60,3.946,6,23.45,0.6,12,1649,2,0,0,"NAN",0.62,"$GPRMC,230004,A,6003.9459,N,00623.4486,E,000.0,000.0,260426,000.6,E","$GPGGA,230004,6003.9459,N,00623.4486,E,2,12,0.8,1648.8,M,42.0,M,,","",-999,0,-5.987,-6.345,69.11,-6.708,86.1,-6.543
"2026-04-26 23:15:00",537,1436,13.03,"2026-04-26 23:03:00",-6.139,836,-0.736,2.024,60,3.946,6,23.45,0.6,11,1648,2,0,0,"NAN",0.56,"$GPRMC,231504,A,6003.9460,N,00623.4490,E,000.0,000.0,260426,000.6,E","$GPGGA,231504,6003.9460,N,00623.4490,E,2,11,0.8,1648.4,M,42.0,M,,","",-999,0,-6.277,-6.716,67.91,-7.024,85,-6.828
"2026-04-26 23:30:00",538,1436,13.03,"2026-04-26 23:18:00",-6.147,836,-0.736,2.024,60,3.946,6,23.45,0.6,12,1649,2,0,0,"NAN",0.6,"$GPRMC,233004,A,6003.9462,N,00623.4496,E,000.0,000.0,260426,000.6,E","$GPGGA,233004,6003.9462,N,00623.4496,E,2,12,0.7,1649.0,M,42.0,M,,","",-999,0,-6.126,-6.527,66.82,-6.929,85.7,-6.828
"2026-04-26 23:45:00",539,1436,13.03,"2026-04-26 23:35:00",-6.109,836,-0.736,2.024,60,3.946,6,23.45,0.6,11,1650,2,0,0,"NAN",0.61,"$GPRMC,234504,A,6003.9462,N,00623.4507,E,000.0,000.0,260426,000.6,E","$GPGGA,234504,6003.9462,N,00623.4507,E,2,11,0.7,1649.9,M,42.0,M,,","",-999,0,-5.847,-6.162,73.35,-6.632,87.2,-6.321
"2026-04-27 00:00:00",540,1436,13.02,"2026-04-27 00:00:00",-6.011,836,-0.736,2.024,60,3.946,6,23.45,0.6,10,1651,2,0,0,"NAN",0.6,"$GPRMC,000004,A,6003.9462,N,00623.4515,E,000.0,000.0,270426,000.6,E","$GPGGA,000004,6003.9462,N,00623.4515,E,2,10,0.7,1650.7,M,42.0,M,,","",-999,0,-5.629,-5.942,73.31,-6.41,88.2,-6.188
"2026-04-27 00:15:00",541,1436,13.02,"2026-04-27 00:07:00",-5.92,836,-0.736,2.024,60,3.946,6,23.45,0.6,10,1651,2,0,0,"NAN",0.57,"$GPRMC,001504,A,6003.9462,N,00623.4516,E,000.0,000.0,270426,000.6,E","$GPGGA,001504,6003.9462,N,00623.4516,E,2,10,0.8,1650.7,M,42.0,M,,","",-999,0,-5.843,-6.19,72.15,-6.606,86.7,-6.277
"2026-04-27 00:30:00",542,1436,13.02,"2026-04-27 00:29:00",-5.897,836,-0.745,2.024,60,3.946,6,23.45,0.6,10,1651,2,0,0,"NAN",0.62,"$GPRMC,003004,A,6003.9464,N,00623.4511,E,000.0,000.0,270426,000.6,E","$GPGGA,003004,6003.9464,N,00623.4511,E,2,10,0.8,1650.9,M,42.0,M,,","",-999,0,-5.873,-6.261,71.49,-6.587,86.9,-6.296
"2026-04-27 00:45:00",543,1436,13.01,"2026-04-27 00:45:00",-5.897,836,-0.745,2.024,60,3.947,6,23.45,0.6,11,1651,2,0,0,"NAN",0.63,"$GPRMC,004504,A,6003.9467,N,00623.4517,E,000.0,000.0,270426,000.6,E","$GPGGA,004504,6003.9467,N,00623.4517,E,2,11,0.8,1650.8,M,42.0,M,,","",-999,0,-5.829,-6.303,69.76,-6.549,85.8,-6.296
"2026-04-27 01:00:00",544,1436,13.01,"2026-04-27 00:47:00",-5.904,836,-0.736,2.024,60,3.947,6,23.45,0.6,10,1651,2,0,0,"NAN",0.65,"$GPRMC,010004,A,6003.9469,N,00623.4524,E,000.0,000.0,270426,000.6,E","$GPGGA,010004,6003.9469,N,00623.4524,E,2,10,1.0,1651.4,M,42.0,M,,","",-999,0,-5.641,-6.381,62.38,-6.372,83.2,-6.391
"2026-04-27 01:15:00",545,1436,13,"2026-04-27 01:07:00",-5.934,836,-0.736,2.024,60,3.947,6,23.45,0.6,11,1651,2,0,0,"NAN",0.58,"$GPRMC,011504,A,6003.9468,N,00623.4523,E,000.0,000.0,270426,000.6,E","$GPGGA,011504,6003.9468,N,00623.4523,E,2,11,0.7,1651.3,M,42.0,M,,","",-999,0,-5.479,-6.036,64.32,-6.264,85.2,-6.226
"2026-04-27 01:30:00",546,1436,13,"2026-04-27 01:30:00",-5.903,836,-0.736,2.024,60,3.947,6,23.45,0.6,11,1652,2,0,0,"NAN",0.6,"$GPRMC,013004,A,6003.9468,N,00623.4531,E,000.0,000.0,270426,000.6,E","$GPGGA,013004,6003.9468,N,00623.4531,E,2,11,0.7,1651.5,M,42.0,M,,","",-999,0,-5.625,-5.988,68.65,-6.258,84.6,-6.239
"2026-04-27 01:45:00",547,1436,13,"2026-04-27 01:32:00",-5.789,836,-0.736,2.024,60,3.947,6,23.45,0.6,11,1651,2,0,0,"NAN",0.62,"$GPRMC,014504,A,6003.9467,N,00623.4536,E,000.0,000.0,270426,000.6,E","$GPGGA,014504,6003.9467,N,00623.4536,E,2,11,0.8,1651.4,M,42.0,M,,","",-999,0,-5.748,-6.285,73.61,-6.46,85.1,-6.251
"2026-04-27 02:00:00",548,1436,13,"2026-04-27 01:59:00",-5.628,836,-0.736,2.024,60,3.946,6,23.45,0.6,12,1651,2,0,0,"NAN",0.59,"$GPRMC,020004,A,6003.9462,N,00623.4536,E,000.0,000.0,270426,000.6,E","$GPGGA,020004,6003.9462,N,00623.4536,E,2,12,0.8,1650.9,M,42.0,M,,","",-999,0,-5.743,-6.017,74.03,-6.428,85.8,-6.207
"2026-04-27 02:15:00",549,1436,13,"2026-04-27 02:13:00",-5.504,836,-0.736,2.024,60,3.946,6,23.45,0.6,12,1653,2,0,0,"NAN",0.6,"$GPRMC,021504,A,6003.9460,N,00623.4533,E,000.0,000.0,270426,000.6,E","$GPGGA,021504,6003.9460,N,00623.4533,E,2,12,0.7,1652.7,M,42.0,M,,","",-999,0,-5.714,-6.033,72.9,-6.467,85,-6.15
"2026-04-27 02:30:00",550,1436,13,"2026-04-27 02:16:00",-5.47,836,-0.736,2.024,60,3.946,6,23.45,0.6,12,1653,2,0,0,"NAN",0.64,"$GPRMC,023004,A,6003.9461,N,00623.4530,E,000.0,000.0,270426,000.6,E","$GPGGA,023004,6003.9461,N,00623.4530,E,2,12,0.6,1652.7,M,42.0,M,,","",-999,0,-5.59,-5.592,72.74,-6.359,85.1,-6.055
"2026-04-27 02:45:00",551,1436,12.99,"2026-04-27 02:33:00",-5.464,836,-0.736,2.024,60,3.946,6,23.45,0.6,9,1653,2,0,0,"NAN",0.6,"$GPRMC,024504,A,6003.9462,N,00623.4539,E,000.0,000.0,270426,000.6,E","$GPGGA,024504,6003.9462,N,00623.4539,E,2,09,0.8,1652.6,M,42.0,M,,","",-999,0,-5.326,-5.358,68.74,-6.157,82.5,-6.081
"2026-04-27 03:00:00",552,1436,12.98,"2026-04-27 02:56:00",-5.464,836,-0.736,2.024,60,3.947,6,23.45,0.6,10,1653,2,0,0,"NAN",0.63,"$GPRMC,030004,A,6003.9465,N,00623.4538,E,000.0,000.0,270426,000.6,E","$GPGGA,030004,6003.9465,N,00623.4538,E,2,10,0.8,1653.3,M,42.0,M,,","",-999,0,-5.549,-5.689,71.01,-6.252,85.4,-6.125
"2026-04-27 03:15:00",553,1436,12.98,"2026-04-27 03:03:00",-5.523,836,-0.736,2.024,60,3.947,6,23.45,0.6,10,1653,2,0,0,"NAN",0.66,"$GPRMC,031504,A,6003.9469,N,00623.4539,E,000.0,000.0,270426,000.6,E","$GPGGA,031504,6003.9469,N,00623.4539,E,2,10,0.9,1652.8,M,42.0,M,,","",-999,0,-5.676,-5.803,70.18,-6.416,85.2,-6.106
"2026-04-27 03:30:00",554,1436,12.98,"2026-04-27 03:19:00",-5.628,836,-0.753,2.024,60,3.948,6,23.45,0.6,9,1653,2,0,0,"NAN",0.66,"$GPRMC,033004,A,6003.9476,N,00623.4531,E,000.0,000.0,270426,000.6,E","$GPGGA,033004,6003.9476,N,00623.4531,E,2,09,1.0,1652.6,M,42.0,M,,","",-999,0,-5.822,-6.098,66.47,-6.543,82.4,-6.575
"2026-04-27 03:45:00",555,1436,12.98,"2026-04-27 03:31:00",-5.75,836,-0.745,2.024,60,3.948,6,23.45,0.6,10,1654,2,0,0,"NAN",0.63,"$GPRMC,034504,A,6003.9481,N,00623.4529,E,000.0,000.0,270426,000.6,E","$GPGGA,034504,6003.9481,N,00623.4529,E,2,10,1.0,1653.6,M,42.0,M,,","",-999,0,-5.641,-6.342,56.67,-6.385,80.7,-6.562
"2026-04-27 04:00:00",556,1436,12.98,"2026-04-27 03:46:00",-5.793,836,-0.745,2.024,60,3.949,6,23.45,0.6,10,1656,2,0,0,"NAN",0.64,"$GPRMC,040004,A,6003.9485,N,00623.4540,E,000.0,000.0,270426,000.6,E","$GPGGA,040004,6003.9485,N,00623.4540,E,2,10,0.9,1655.6,M,42.0,M,,","",-999,0,-5.38,-6.077,61.6,-6.163,82.6,-6.296
"2026-04-27 04:15:00",557,1436,12.98,"2026-04-27 04:01:00",-5.708,836,-0.745,2.024,60,3.948,6,23.46,0.6,10,1656,2,0,0,"NAN",0.65,"$GPRMC,041504,A,6003.9480,N,00623.4551,E,000.0,000.0,270426,000.6,E","$GPGGA,041504,6003.9480,N,00623.4551,E,2,10,0.8,1656.2,M,42.0,M,,","",-999,0,-5.452,-5.877,63.01,-6.245,83.4,-6.195
"2026-04-27 04:30:00",558,1436,12.98,"2026-04-27 04:16:00",-5.594,836,-0.736,2.024,60,3.947,6,23.46,0.6,10,1656,2,0,0,"NAN",0.65,"$GPRMC,043004,A,6003.9467,N,00623.4557,E,000.0,000.0,270426,000.6,E","$GPGGA,043004,6003.9467,N,00623.4557,E,2,10,0.8,1655.5,M,42.0,M,,","",-999,0,-5.236,-5.589,63.55,-6.005,82.7,-6.138
"2026-04-27 04:45:00",559,1436,13.01,"2026-04-27 04:31:00",-5.162,836,-0.736,2.024,60,3.946,6,23.46,0.6,10,1656,2,0,0,"NAN",0.66,"$GPRMC,044504,A,6003.9462,N,00623.4557,E,000.0,000.0,270426,000.6,E","$GPGGA,044504,6003.9462,N,00623.4557,E,2,10,0.8,1655.7,M,42.0,M,,","",-999,0,-4.97,-5.714,64.5,-5.675,82.9,-5.973
"2026-04-27 05:00:00",560,1436,13.02,"2026-04-27 04:46:00",-4.654,836,-0.736,2.024,60,3.947,6,23.46,0.6,11,1656,2,0,0,"NAN",0.66,"$GPRMC,050004,A,6003.9467,N,00623.4553,E,000.0,000.0,270426,000.6,E","$GPGGA,050004,6003.9467,N,00623.4553,E,2,11,0.7,1655.5,M,42.0,M,,","",-999,0,-4.169,-6.018,58.83,-5.099,81.7,-6.024
"2026-04-27 05:15:00",561,1436,13.05,"2026-04-27 05:02:00",-3.856,836,-0.736,2.032,60,3.947,6,23.46,0.6,10,1654,2,0,0,"NAN",0.65,"$GPRMC,051504,A,6003.9474,N,00623.4553,E,000.0,000.0,270426,000.6,E","$GPGGA,051504,6003.9474,N,00623.4553,E,2,10,0.8,1653.8,M,42.0,M,,","",-999,0,-4.827,-6.038,55.47,-5.485,80.1,-6.22
"2026-04-27 05:30:00",562,1436,13.07,"2026-04-27 05:16:00",-3.803,836,-0.736,2.024,60,3.947,6,23.45,0.6,9,1652,2,0,0,"NAN",0.68,"$GPRMC,053004,A,6003.9472,N,00623.4547,E,000.0,000.0,270426,000.6,E","$GPGGA,053004,6003.9472,N,00623.4547,E,2,09,1.0,1651.5,M,42.0,M,,","",-999,0,-5.096,-5.692,60.74,-5.891,81.1,-6.239
"2026-04-27 05:45:00",563,1436,13.09,"2026-04-27 05:31:00",-3.518,836,-0.719,2.041,60,3.947,6,23.45,0.6,9,1652,2,0,0,"NAN",0.67,"$GPRMC,054504,A,6003.9469,N,00623.4544,E,000.0,000.0,270426,000.6,E","$GPGGA,054504,6003.9469,N,00623.4544,E,2,09,1.0,1651.6,M,42.0,M,,","",-999,0,-4.049,-5.611,54.96,-4.972,79.6,-6.024
"2026-04-27 06:00:00",564,1436,13.14,"2026-04-27 05:46:00",-2.161,837,-0.719,2.041,60,3.948,6,23.45,0.6,10,1653,2,0,0,"NAN",0.69,"$GPRMC,060004,A,6003.9475,N,00623.4542,E,000.0,000.0,270426,000.6,E","$GPGGA,060004,6003.9475,N,00623.4542,E,2,10,1.0,1652.6,M,42.0,M,,","",-999,0,-1.91,-5.12,48.58,-2.984,78.83,-5.644
"2026-04-27 06:15:00",565,1436,13.14,"2026-04-27 06:05:00",-0.88,837,-0.719,2.041,60,3.948,6,23.45,0.6,10,1653,2,0,0,"NAN",0.69,"$GPRMC,061504,A,6003.9482,N,00623.4541,E,000.0,000.0,270426,000.6,E","$GPGGA,061504,6003.9482,N,00623.4541,E,2,10,0.9,1652.5,M,42.0,M,,","",-999,0,-2.741,-5.515,43.77,-3.573,77.16,-5.758
"2026-04-27 06:30:00",566,1436,13.15,"2026-04-27 06:28:00",-0.571,837,-0.719,2.041,60,3.948,6,23.45,0.6,9,1653,2,0,0,"NAN",0.67,"$GPRMC,063004,A,6003.9484,N,00623.4545,E,000.0,000.0,270426,000.6,E","$GPGGA,063004,6003.9484,N,00623.4545,E,2,09,1.3,1652.7,M,42.0,M,,","",-999,0,-3.581,-5.733,45.22,-4.319,77.2,-5.928
"2026-04-27 06:45:00",567,1436,13.15,"2026-04-27 06:42:00",-0.669,837,-0.719,2.041,60,3.948,6,23.46,0.6,9,1651,2,0,0,"NAN",0.67,"$GPRMC,064504,A,6003.9484,N,00623.4550,E,000.0,000.0,270426,000.6,E","$GPGGA,064504,6003.9484,N,00623.4550,E,2,09,0.8,1650.9,M,42.0,M,,","",-999,0,-4.036,-5.945,48.31,-4.729,77.99,-5.951
"2026-04-27 07:00:00",568,1436,13.16,"2026-04-27 06:50:00",-0.861,838,-0.719,2.041,60,3.948,6,23.46,0.6,12,1650,2,0,0,"NAN",0.63,"$GPRMC,070004,A,6003.9483,N,00623.4550,E,000.0,000.0,270426,000.6,E","$GPGGA,070004,6003.9483,N,00623.4550,E,2,12,0.7,1650.0,M,42.0,M,,","",-999,0,-3.931,-5.494,48.06,-4.691,75.72,-5.799
"2026-04-27 07:15:00",569,1436,13.16,"2026-04-27 07:04:00",-0.875,838,-0.719,2.041,60,3.948,6,23.45,0.6,11,1651,2,0,0,"NAN",0.63,"$GPRMC,071504,A,6003.9480,N,00623.4546,E,000.0,000.0,270426,000.6,E","$GPGGA,071504,6003.9480,N,00623.4546,E,2,11,0.8,1651.1,M,42.0,M,,","",-999,0,-4.267,-5.326,45.6,-4.994,71.56,-5.564
"2026-04-27 07:30:00",570,1436,13.2,"2026-04-27 07:17:00",-0.413,838,-0.719,2.041,60,3.948,6,23.45,0.6,12,1651,2,0,0,"NAN",0.69,"$GPRMC,073004,A,6003.9480,N,00623.4544,E,000.0,000.0,270426,000.6,E","$GPGGA,073004,6003.9480,N,00623.4544,E,2,12,0.8,1650.9,M,42.0,M,,","",-999,0,-4.299,-4.842,45.48,-5.058,69.32,-5.375
"2026-04-27 07:45:00",571,1436,13.23,"2026-04-27 07:31:00",0.288,838,-0.719,2.041,60,3.948,6,23.45,0.6,12,1649,2,0,0,"NAN",0.67,"$GPRMC,074504,A,6003.9476,N,00623.4546,E,000.0,000.0,270426,000.6,E","$GPGGA,074504,6003.9476,N,00623.4546,E,2,12,0.8,1648.5,M,42.0,M,,","",-999,0,-4.414,-5.031,45.64,-5.086,67.52,-5.377
"2026-04-27 08:00:00",572,1436,13.27,"2026-04-27 07:46:00",0.864,838,-0.719,2.049,60,3.947,6,23.45,0.6,11,1646,2,0,0,"NAN",0.7,"$GPRMC,080004,A,6003.9472,N,00623.4540,E,000.0,000.0,270426,000.6,E","$GPGGA,080004,6003.9472,N,00623.4540,E,2,11,0.8,1645.9,M,42.0,M,,","",-999,0,-3.714,-4.833,47.94,-4.694,68.18,-5.352
"2026-04-27 08:15:00",573,1436,13.29,"2026-04-27 08:01:00",1.36,838,-0.719,2.041,60,3.948,6,23.45,0.6,12,1646,2,0,0,"NAN",0.67,"$GPRMC,081504,A,6003.9479,N,00623.4545,E,000.0,000.0,270426,000.6,E","$GPGGA,081504,6003.9479,N,00623.4545,E,2,12,0.7,1645.7,M,42.0,M,,","",-999,0,-3.233,-4.952,46.79,-4.155,69.47,-5.39
"2026-04-27 08:30:00",574,1436,13.35,"2026-04-27 08:17:00",1.848,838,-0.72,2.04,60,3.948,6,23.45,0.6,11,1647,2,0,0,"NAN",0.69,"$GPRMC,083004,A,6003.9484,N,00623.4549,E,000.0,000.0,270426,000.6,E","$GPGGA,083004,6003.9484,N,00623.4549,E,2,11,0.8,1646.5,M,42.0,M,,","",-999,0,-2.57,-4.827,46.69,-3.339,71.79,-5.086
"2026-04-27 08:45:00",575,1436,13.42,"2026-04-27 08:31:00",2.942,838,-0.706,2.054,60,3.948,6,23.45,0.6,10,1642,2,0,0,"NAN",0.68,"$GPRMC,084504,A,6003.9481,N,00623.4543,E,000.0,000.0,270426,000.6,E","$GPGGA,084504,6003.9481,N,00623.4543,E,2,10,0.8,1642.3,M,42.0,M,,","",-999,0,-1.474,-4.361,47.4,-2.282,72.61,-4.789
"2026-04-27 09:00:00",576,1436,13.47,"2026-04-27 08:46:00",3.852,838,-0.72,2.032,60,3.949,6,23.46,0.6,11,1642,2,0,0,"NAN",0.68,"$GPRMC,090004,A,6003.9489,N,00623.4550,E,000.0,000.0,270426,000.6,E","$GPGGA,090004,6003.9489,N,00623.4550,E,2,11,0.8,1641.6,M,42.0,M,,","",-999,0,-2.269,-4.479,51.39,-3.105,69.88,-4.795
"2026-04-27 09:15:00",577,1436,13.51,"2026-04-27 09:01:00",4.202,838,-0.724,2.036,60,3.949,6,23.46,0.6,10,1643,2,0,0,"NAN",0.69,"$GPRMC,091504,A,6003.9493,N,00623.4560,E,000.0,000.0,270426,000.6,E","$GPGGA,091504,6003.9493,N,00623.4560,E,2,10,0.8,1643.1,M,42.0,M,,","",-999,0,-4.36,-4.716,58.6,-5.048,70.63,-4.934
"2026-04-27 09:30:00",578,1436,13.57,"2026-04-27 09:16:00",4.361,838,-0.724,2.036,60,3.95,6,23.46,0.6,11,1645,2,0,0,"NAN",0.69,"$GPRMC,093004,A,6003.9498,N,00623.4560,E,000.0,000.0,270426,000.6,E","$GPGGA,093004,6003.9498,N,00623.4560,E,2,11,0.7,1644.8,M,42.0,M,,","",-999,0,-4.419,-4.789,59.85,-5.175,69.07,-4.979
"2026-04-27 09:45:00",579,1436,13.64,"2026-04-27 09:37:00",4.418,838,-0.724,2.036,60,3.95,6,23.46,0.6,11,1646,2,0,0,"NAN",0.72,"$GPRMC,094504,A,6003.9496,N,00623.4564,E,000.0,000.0,270426,000.6,E","$GPGGA,094504,6003.9496,N,00623.4564,E,2,11,0.8,1645.6,M,42.0,M,,","",-999,0,-4.009,-4.354,58.33,-4.821,67.43,-4.789
"2026-04-27 10:00:00",580,1436,13.73,"2026-04-27 09:48:00",4.451,838,-0.724,2.036,60,3.95,6,23.46,0.6,12,1647,2,0,0,"NAN",0.68,"$GPRMC,100004,A,6003.9497,N,00623.4567,E,000.0,000.0,270426,000.6,E","$GPGGA,100004,6003.9497,N,00623.4567,E,2,12,0.8,1646.7,M,42.0,M,,","",-999,0,-3.494,-4.333,57.19,-4.327,66.77,-4.758
"2026-04-27 10:15:00",581,1436,13.68,"2026-04-27 10:14:00",4.407,838,-0.724,2.036,60,3.95,6,23.46,0.6,11,1647,2,0,0,"NAN",0.69,"$GPRMC,101504,A,6003.9495,N,00623.4564,E,000.0,000.0,270426,000.6,E","$GPGGA,101504,6003.9495,N,00623.4564,E,2,11,0.8,1646.7,M,42.0,M,,","",-999,0,-3.175,-4.81,57.02,-3.954,68.44,-4.777
"2026-04-27 10:30:00",582,1436,13.64,"2026-04-27 10:30:00",4.334,838,-0.724,2.036,60,3.95,6,23.46,0.6,10,1647,2,0,0,"NAN",0.7,"$GPRMC,103004,A,6003.9498,N,00623.4565,E,000.0,000.0,270426,000.6,E","$GPGGA,103004,6003.9498,N,00623.4565,E,2,10,0.8,1646.8,M,42.0,M,,","",-999,0,-4.122,-4.575,60.39,-4.795,68.93,-4.764
"2026-04-27 10:45:00",583,1436,13.55,"2026-04-27 10:39:00",4.225,838,-0.724,2.036,60,3.95,6,23.45,0.6,12,1647,2,0,0,"NAN",0.69,"$GPRMC,104504,A,6003.9500,N,00623.4549,E,000.0,000.0,270426,000.6,E","$GPGGA,104504,6003.9500,N,00623.4549,E,2,12,0.7,1647.2,M,42.0,M,,","",-999,0,-3.918,-4.329,60.28,-4.637,69.26,-4.624
"2026-04-27 11:00:00",584,1436,13.57,"2026-04-27 10:46:00",4.267,839,-0.724,2.036,60,3.95,6,23.45,0.6,12,1647,2,0,0,"NAN",0.71,"$GPRMC,110004,A,6003.9500,N,00623.4546,E,000.0,000.0,270426,000.6,E","$GPGGA,110004,6003.9500,N,00623.4546,E,2,12,0.7,1646.7,M,42.0,M,,","",-999,0,-3.54,-4.196,55.95,-4.358,66.82,-4.371
"2026-04-27 11:15:00",585,1436,13.64,"2026-04-27 11:07:00",4.554,839,-0.724,2.036,60,3.949,6,23.45,0.6,12,1645,2,0,0,"NAN",0.71,"$GPRMC,111504,A,6003.9494,N,00623.4538,E,000.0,000.0,270426,000.6,E","$GPGGA,111504,6003.9494,N,00623.4538,E,2,12,0.7,1644.5,M,42.0,M,,","",-999,0,-3.477,-3.856,55.97,-4.194,67.42,-3.991
"2026-04-27 11:30:00",586,1436,13.69,"2026-04-27 11:30:00",4.758,839,-0.707,2.036,60,3.949,6,23.45,0.6,11,1643,2,0,0,"NAN",0.71,"$GPRMC,113004,A,6003.9489,N,00623.4541,E,000.0,000.0,270426,000.6,E","$GPGGA,113004,6003.9489,N,00623.4541,E,2,11,0.9,1643.0,M,42.0,M,,","",-999,0,-3.356,-4.072,55.72,-3.998,66.33,-3.922
"2026-04-27 11:45:00",587,1436,13.64,"2026-04-27 11:38:00",4.849,839,-0.716,2.036,60,3.949,6,23.46,0.6,10,1646,2,0,0,"NAN",0.66,"$GPRMC,114504,A,6003.9490,N,00623.4550,E,000.0,000.0,270426,000.6,E","$GPGGA,114504,6003.9490,N,00623.4550,E,2,10,0.8,1646.1,M,42.0,M,,","",-999,0,-3.422,-4.005,58.71,-4.124,67.95,-4.048
"2026-04-27 12:00:00",588,1436,13.69,"2026-04-27 11:46:00",4.816,839,-0.716,2.036,60,3.949,6,23.46,0.6,12,1648,2,0,0,"NAN",0.68,"$GPRMC,120004,A,6003.9493,N,00623.4552,E,000.0,000.0,270426,000.6,E","$GPGGA,120004,6003.9493,N,00623.4552,E,2,12,0.8,1648.3,M,42.0,M,,","",-999,0,-2.862,-3.826,58.19,-3.668,68.47,-3.934
"2026-04-27 12:15:00",589,1436,13.86,"2026-04-27 12:01:00",4.796,839,-0.724,2.036,60,3.95,6,23.45,0.6,8,1647,2,0,0,"NAN",0.68,"$GPRMC,121504,A,6003.9501,N,00623.4534,E,000.0,000.0,270426,000.6,E","$GPGGA,121504,6003.9501,N,00623.4534,E,2,08,0.9,1647.1,M,42.0,M,,","",-999,0,-2.131,-3.807,55.61,-2.858,69.32,-4.017
"2026-04-27 12:30:00",590,1436,14.13,"2026-04-27 12:16:00",4.62,839,-0.724,2.036,60,3.95,6,23.45,0.6,10,1643,2,0,0,"NAN",0.74,"$GPRMC,123004,A,6003.9499,N,00623.4510,E,000.0,000.0,270426,000.6,E","$GPGGA,123004,6003.9499,N,00623.4510,E,2,10,0.9,1642.8,M,42.0,M,,","",-999,0,-2.162,-3.803,57.03,-2.915,69.53,-3.915
"2026-04-27 12:45:00",591,1436,14.25,"2026-04-27 12:33:00",4.438,839,-0.724,2.036,60,3.95,6,23.45,0.6,8,1641,2,0,0,"NAN",0.75,"$GPRMC,124504,A,6003.9496,N,00623.4500,E,000.0,000.0,270426,000.6,E","$GPGGA,124504,6003.9496,N,00623.4500,E,2,08,1.2,1640.7,M,42.0,M,,","",-999,0,-0.968,-3.753,53.52,-1.573,70.39,-3.789
"2026-04-27 13:00:00",592,1436,14.16,"2026-04-27 12:58:00",3.993,840,-0.724,2.036,60,3.949,6,23.45,0.6,10,1642,2,0,0,"NAN",0.75,"$GPRMC,130004,A,6003.9491,N,00623.4489,E,000.0,000.0,270426,000.6,E","$GPGGA,130004,6003.9491,N,00623.4489,E,2,10,0.9,1641.6,M,42.0,M,,","",-999,0,-1.852,-3.681,57.05,-2.484,70.44,-3.808
"2026-04-27 13:15:00",593,1436,14.17,"2026-04-27 13:13:00",3.349,840,-0.724,2.036,60,3.949,6,23.45,0.6,10,1642,2,0,0,"NAN",0.73,"$GPRMC,131504,A,6003.9487,N,00623.4497,E,000.0,000.0,270426,000.6,E","$GPGGA,131504,6003.9487,N,00623.4497,E,2,10,0.9,1641.7,M,42.0,M,,","",-999,0,-1.927,-3.779,58.66,-2.503,72.06,-3.744
"2026-04-27 13:30:00",594,1436,14.47,"2026-04-27 13:16:00",2.786,840,-0.71,2.05,60,3.949,6,23.45,0.6,12,1642,2,0,0,"NAN",0.76,"$GPRMC,133004,A,6003.9488,N,00623.4507,E,000.0,000.0,270426,000.6,E","$GPGGA,133004,6003.9488,N,00623.4507,E,2,12,0.7,1642.2,M,42.0,M,,","",-999,0,-1.758,-3.561,57.9,-2.288,71.94,-3.51
"2026-04-27 13:45:00",595,1436,14.87,"2026-04-27 13:31:00",2.313,840,-0.705,2.055,60,3.95,6,23.45,0.6,11,1646,2,0,0,"NAN",0.73,"$GPRMC,134504,A,6003.9499,N,00623.4517,E,000.0,000.0,270426,000.6,E","$GPGGA,134504,6003.9499,N,00623.4517,E,2,11,0.7,1645.8,M,42.0,M,,","",-999,0,-1.884,-3.286,59.26,-2.491,71.53,-3.548
"2026-04-27 14:00:00",596,1436,14.86,"2026-04-27 13:51:00",1.881,840,-0.72,2.049,60,3.951,6,23.45,0.6,11,1648,2,0,0,"NAN",0.74,"$GPRMC,140004,A,6003.9507,N,00623.4514,E,000.0,000.0,270426,000.6,E","$GPGGA,140004,6003.9507,N,00623.4514,E,2,11,0.7,1648.4,M,42.0,M,,","",-999,0,-2.178,-3.486,60.22,-2.712,73.78,-3.478
"2026-04-27 14:15:00",597,1436,14.87,"2026-04-27 14:02:00",1.452,840,-0.711,2.049,60,3.95,6,23.45,0.6,10,1649,2,0,0,"NAN",0.77,"$GPRMC,141504,A,6003.9504,N,00623.4504,E,000.0,000.0,270426,000.6,E","$GPGGA,141504,6003.9504,N,00623.4504,E,2,10,0.8,1649.1,M,42.0,M,,","",-999,0,-2.579,-3.465,64.48,-3.042,76.37,-3.472
"2026-04-27 14:30:00",598,1436,14.9,"2026-04-27 14:20:00",1.056,840,-0.719,2.041,60,3.951,6,23.45,0.6,10,1651,2,0,0,"NAN",0.76,"$GPRMC,143004,A,6003.9508,N,00623.4497,E,000.0,000.0,270426,000.6,E","$GPGGA,143004,6003.9508,N,00623.4497,E,2,10,0.8,1650.6,M,42.0,M,,","",-999,0,-2.789,-3.404,68.42,-3.206,77.6,-3.428
"2026-04-27 14:45:00",599,1436,14.92,"2026-04-27 14:31:00",0.758,840,-0.719,2.041,60,3.951,6,23.45,0.6,10,1651,2,0,0,"NAN",0.74,"$GPRMC,144504,A,6003.9509,N,00623.4492,E,000.0,000.0,270426,000.6,E","$GPGGA,144504,6003.9509,N,00623.4492,E,2,10,0.8,1650.8,M,42.0,M,,","",-999,0,-2.398,-3.436,63.58,-2.928,74.52,-3.339
"2026-04-27 15:00:00",600,1436,14.93,"2026-04-27 14:58:00",0.519,840,-0.72,2.04,60,3.951,6,23.45,0.6,11,1651,2,0,0,"NAN",0.75,"$GPRMC,150004,A,6003.9508,N,00623.4494,E,000.0,000.0,270426,000.6,E","$GPGGA,150004,6003.9508,N,00623.4494,E,2,11,0.8,1651.0,M,42.0,M,,","",-999,0,-3.124,-3.305,71.51,-3.484,79.2,-3.592
"2026-04-27 15:15:00",601,1436,14.94,"2026-04-27 15:02:00",0.242,840,-0.711,2.049,60,3.95,6,23.45,0.6,9,1651,2,0,0,"NAN",0.82,"$GPRMC,151504,A,6003.9501,N,00623.4499,E,000.0,000.0,270426,000.6,E","$GPGGA,151504,6003.9501,N,00623.4499,E,2,09,1.1,1650.7,M,42.0,M,,","",-999,0,-3.609,-3.744,75,-4.167,79.26,-3.515
"2026-04-27 15:30:00",602,1436,14.98,"2026-04-27 15:18:00",-0.091,840,-0.72,2.04,60,3.95,6,23.45,0.6,9,1649,2,0,0,"NAN",0.76,"$GPRMC,153004,A,6003.9497,N,00623.4497,E,000.0,000.0,270426,000.6,E","$GPGGA,153004,6003.9497,N,00623.4497,E,2,09,0.9,1649.2,M,42.0,M,,","",-999,0,-3.42,-3.578,73.45,-4.015,78.54,-3.426
"2026-04-27 15:45:00",603,1436,14.36,"2026-04-27 15:42:00",-0.334,840,-0.719,2.041,60,3.95,6,23.45,0.6,12,1648,2,0,0,"NAN",0.75,"$GPRMC,154504,A,6003.9497,N,00623.4509,E,000.0,000.0,270426,000.6,E","$GPGGA,154504,6003.9497,N,00623.4509,E,2,12,0.7,1648.2,M,42.0,M,,","",-999,0,-3.644,-3.398,73.9,-4.136,77.14,-3.293
"2026-04-27 16:00:00",604,1436,14.36,"2026-04-27 15:46:00",-0.51,840,-0.719,2.041,60,3.95,6,23.45,0.6,12,1647,2,0,0,"NAN",0.75,"$GPRMC,160004,A,6003.9495,N,00623.4517,E,000.0,000.0,270426,000.6,E","$GPGGA,160004,6003.9495,N,00623.4517,E,2,12,0.7,1647.0,M,42.0,M,,","",-999,0,-3.705,-3.41,74.23,-4.204,77.59,-3.349
"2026-04-27 16:15:00",605,1436,14.39,"2026-04-27 16:04:00",-0.666,840,-0.719,2.041,60,3.949,6,23.45,0.6,9,1647,2,0,0,"NAN",0.74,"$GPRMC,161504,A,6003.9493,N,00623.4534,E,000.0,000.0,270426,000.6,E","$GPGGA,161504,6003.9493,N,00623.4534,E,2,09,0.9,1647.2,M,42.0,M,,","",-999,0,-3.996,-3.751,75.39,-4.618,77.71,-3.561
"2026-04-27 16:30:00",606,1436,14.4,"2026-04-27 16:17:00",-0.851,840,-0.719,2.041,60,3.949,6,23.45,0.6,12,1648,2,0,0,"NAN",0.75,"$GPRMC,163004,A,6003.9493,N,00623.4533,E,000.0,000.0,270426,000.6,E","$GPGGA,163004,6003.9493,N,00623.4533,E,2,12,0.7,1648.0,M,42.0,M,,","",-999,0,-4.036,-3.848,76.8,-4.618,79.01,-3.845
"2026-04-27 16:45:00",607,1436,14.4,"2026-04-27 16:40:00",-1.021,840,-0.719,2.041,60,3.949,6,23.45,0.6,12,1650,2,0,0,"NAN",0.74,"$GPRMC,164504,A,6003.9492,N,00623.4531,E,000.0,000.0,270426,000.6,E","$GPGGA,164504,6003.9492,N,00623.4531,E,2,12,0.7,1649.6,M,42.0,M,,","",-999,0,-3.91,-3.926,74.53,-4.558,77.32,-3.609
"2026-04-27 17:00:00",608,1436,14.4,"2026-04-27 16:50:00",-1.03,840,-0.719,2.041,60,3.95,6,23.45,0.6,11,1648,2,0,0,"NAN",0.77,"$GPRMC,170004,A,6003.9495,N,00623.4523,E,000.0,000.0,270426,000.6,E","$GPGGA,170004,6003.9495,N,00623.4523,E,2,11,0.8,1647.8,M,42.0,M,,","",-999,0,-3.781,-3.637,73.48,-4.286,76.53,-3.406
"2026-04-27 17:15:00",609,1436,14.4,"2026-04-27 17:14:00",-0.903,840,-0.719,2.041,60,3.949,6,23.45,0.6,12,1646,2,0,0,"NAN",0.76,"$GPRMC,171504,A,6003.9490,N,00623.4514,E,000.0,000.0,270426,000.6,E","$GPGGA,171504,6003.9490,N,00623.4514,E,2,12,0.8,1646.4,M,42.0,M,,","",-999,0,-3.697,-3.693,72.08,-4.3,75.52,-3.616
"2026-04-27 17:30:00",610,1436,14.39,"2026-04-27 17:30:00",-0.751,840,-0.719,2.041,60,3.949,6,23.45,0.6,12,1645,2,0,0,"NAN",0.73,"$GPRMC,173004,A,6003.9489,N,00623.4500,E,000.0,000.0,270426,000.6,E","$GPGGA,173004,6003.9489,N,00623.4500,E,2,12,0.7,1644.8,M,42.0,M,,","",-999,0,-3.736,-3.618,73.37,-4.364,76.41,-3.547
"2026-04-27 17:45:00",611,1436,14.39,"2026-04-27 17:36:00",-0.621,840,-0.719,2.041,60,3.949,6,23.45,0.6,10,1646,2,0,0,"NAN",0.75,"$GPRMC,174504,A,6003.9493,N,00623.4504,E,000.0,000.0,270426,000.6,E","$GPGGA,174504,6003.9493,N,00623.4504,E,2,10,0.7,1645.8,M,42.0,M,,","",-999,0,-3.74,-3.511,71.36,-4.309,72.37,-3.417
"2026-04-27 18:00:00",612,1436,14.39,"2026-04-27 17:49:00",-0.439,840,-0.72,2.04,60,3.949,6,23.45,0.6,12,1647,2,0,0,"NAN",0.77,"$GPRMC,180004,A,6003.9494,N,00623.4506,E,000.0,000.0,270426,000.6,E","$GPGGA,180004,6003.9494,N,00623.4506,E,2,12,0.7,1647.0,M,42.0,M,,","",-999,0,-3.747,-3.741,71.53,-4.384,72.31,-3.542
"2026-04-27 18:15:00",613,1436,14.27,"2026-04-27 18:15:00",-0.347,840,-0.719,2.041,60,3.949,6,23.45,0.6,10,1647,2,0,0,"NAN",0.78,"$GPRMC,181504,A,6003.9493,N,00623.4510,E,000.0,000.0,270426,000.6,E","$GPGGA,181504,6003.9493,N,00623.4510,E,2,10,1.0,1647.4,M,42.0,M,,","",-999,0,-3.672,-3.286,68.64,-4.343,69.94,-3.52
"2026-04-27 18:30:00",614,1436,14.1,"2026-04-27 18:30:00",-0.414,840,-0.719,2.041,60,3.949,6,23.45,0.6,9,1648,2,0,0,"NAN",0.8,"$GPRMC,183004,A,6003.9494,N,00623.4517,E,000.0,000.0,270426,000.6,E","$GPGGA,183004,6003.9494,N,00623.4517,E,2,09,0.9,1648.2,M,42.0,M,,","",-999,0,-3.543,-3.363,66.49,-4.18,66.56,-3.332
"2026-04-27 18:45:00",615,1436,13.93,"2026-04-27 18:45:00",-0.653,840,-0.719,2.041,60,3.95,6,23.45,0.6,10,1648,2,0,0,"NAN",0.78,"$GPRMC,184504,A,6003.9496,N,00623.4516,E,000.0,000.0,270426,000.6,E","$GPGGA,184504,6003.9496,N,00623.4516,E,2,10,0.8,1647.8,M,42.0,M,,","",-999,0,-3.698,-3.639,67.07,-4.372,68.05,-3.391
"2026-04-27 19:00:00",616,1436,13.71,"2026-04-27 19:00:00",-1.014,840,-0.719,2.041,60,3.949,6,23.45,0.6,11,1647,2,0,0,"NAN",0.84,"$GPRMC,190004,A,6003.9494,N,00623.4515,E,000.0,000.0,270426,000.6,E","$GPGGA,190004,6003.9494,N,00623.4515,E,2,11,0.8,1647.0,M,42.0,M,,","",-999,0,-3.745,-3.192,68.41,-4.337,67.77,-3.362
"2026-04-27 19:15:00",617,1436,13.45,"2026-04-27 19:15:00",-1.452,840,-0.719,2.041,60,3.949,6,23.45,0.6,11,1646,2,0,0,"NAN",0.78,"$GPRMC,191504,A,6003.9492,N,00623.4495,E,000.0,000.0,270426,000.6,E","$GPGGA,191504,6003.9492,N,00623.4495,E,2,11,0.8,1645.6,M,42.0,M,,","",-999,0,-3.761,-3.421,68.97,-4.362,70.04,-3.489
"2026-04-27 19:30:00",618,1436,13.3,"2026-04-27 19:30:00",-2.035,840,-0.719,2.032,60,3.949,6,23.45,0.6,10,1644,2,0,0,"NAN",0.79,"$GPRMC,193004,A,6003.9489,N,00623.4487,E,000.0,000.0,270426,000.6,E","$GPGGA,193004,6003.9489,N,00623.4487,E,2,10,0.8,1643.8,M,42.0,M,,","",-999,0,-3.878,-3.445,69.32,-4.476,70.51,-3.52
"2026-04-27 19:45:00",619,1436,13.23,"2026-04-27 19:45:00",-2.658,840,-0.736,2.032,60,3.949,6,23.45,0.6,11,1645,2,0,0,"NAN",0.83,"$GPRMC,194504,A,6003.9490,N,00623.4481,E,000.0,000.0,270426,000.6,E","$GPGGA,194504,6003.9490,N,00623.4481,E,2,11,0.8,1644.6,M,42.0,M,,","",-999,0,-3.774,-3.487,69.14,-4.434,70.18,-3.446
"2026-04-27 20:00:00",620,1436,13.19,"2026-04-27 19:58:00",-3.199,841,-0.736,2.024,60,3.949,6,23.45,0.6,11,1647,2,0,0,"NAN",0.81,"$GPRMC,200004,A,6003.9491,N,00623.4486,E,000.0,000.0,270426,000.6,E","$GPGGA,200004,6003.9491,N,00623.4486,E,2,11,0.8,1646.7,M,42.0,M,,","",-999,0,-3.771,-3.285,69.66,-4.447,70.39,-3.604
"2026-04-27 20:15:00",621,1436,13.17,"2026-04-27 20:14:00",-3.614,841,-0.736,2.032,60,3.949,6,23.45,0.6,11,1650,2,0,0,"NAN",0.81,"$GPRMC,201504,A,6003.9492,N,00623.4490,E,000.0,000.0,270426,000.6,E","$GPGGA,201504,6003.9492,N,00623.4490,E,2,11,0.8,1649.9,M,42.0,M,,","",-999,0,-3.679,-3.381,69.17,-4.459,69.73,-3.49
"2026-04-27 20:30:00",622,1436,13.16,"2026-04-27 20:28:00",-3.903,841,-0.728,2.024,60,3.949,6,23.45,0.6,11,1653,2,0,0,"NAN",0.86,"$GPRMC,203004,A,6003.9490,N,00623.4496,E,000.0,000.0,270426,000.6,E","$GPGGA,203004,6003.9490,N,00623.4496,E,2,11,0.8,1652.6,M,42.0,M,,","",-999,0,-3.697,-3.408,68.14,-4.447,68.06,-3.44
"2026-04-27 20:45:00",623,1436,13.14,"2026-04-27 20:42:00",-4.101,841,-0.728,2.041,60,3.949,6,23.45,0.6,11,1653,2,0,0,"NAN",0.82,"$GPRMC,204504,A,6003.9490,N,00623.4500,E,000.0,000.0,270426,000.6,E","$GPGGA,204504,6003.9490,N,00623.4500,E,2,11,0.8,1653.1,M,42.0,M,,","",-999,0,-4.11,-3.718,70.03,-4.852,71.33,-3.889
"2026-04-27 21:00:00",624,1436,13.13,"2026-04-27 20:55:00",-4.351,841,-0.736,2.024,60,3.949,6,23.45,0.6,10,1652,2,0,0,"NAN",0.82,"$GPRMC,210004,A,6003.9494,N,00623.4497,E,000.0,000.0,270426,000.6,E","$GPGGA,210004,6003.9494,N,00623.4497,E,2,10,0.9,1651.7,M,42.0,M,,","",-999,0,-3.774,-3.406,70.7,-4.573,70.16,-3.579
"2026-04-27 21:15:00",625,1436,13.12,"2026-04-27 21:09:00",-4.496,841,-0.736,2.024,60,3.949,6,23.45,0.6,9,1652,2,0,0,"NAN",0.83,"$GPRMC,211504,A,6003.9492,N,00623.4493,E,000.0,000.0,270426,000.6,E","$GPGGA,211504,6003.9492,N,00623.4493,E,2,09,1.0,1651.7,M,42.0,M,,","",-999,0,-3.306,-3.026,64.89,-4.149,62.97,-3.136
"2026-04-27 21:30:00",626,1436,13.12,"2026-04-27 21:24:00",-4.582,841,-0.736,2.032,60,3.949,6,23.45,0.6,11,1652,2,0,0,"NAN",0.85,"$GPRMC,213004,A,6003.9490,N,00623.4501,E,000.0,000.0,270426,000.6,E","$GPGGA,213004,6003.9490,N,00623.4501,E,2,11,0.8,1652.3,M,42.0,M,,","",-999,0,-2.714,-2.535,54.03,-3.554,52.74,-2.528
"2026-04-27 21:45:00",627,1436,13.11,"2026-04-27 21:38:00",-4.684,841,-0.736,2.024,60,3.949,6,23.45,0.6,11,1653,2,0,0,"NAN",0.79,"$GPRMC,214504,A,6003.9485,N,00623.4500,E,000.0,000.0,270426,000.6,E","$GPGGA,214504,6003.9485,N,00623.4500,E,2,11,0.7,1652.8,M,42.0,M,,","",-999,0,-3.358,-2.969,60.68,-4.041,60.58,-3.123
"2026-04-27 22:00:00",628,1436,13.1,"2026-04-27 22:00:00",-4.742,841,-0.736,2.024,60,3.948,6,23.45,0.6,10,1652,2,0,0,"NAN",0.86,"$GPRMC,220004,A,6003.9478,N,00623.4502,E,000.0,000.0,270426,000.6,E","$GPGGA,220004,6003.9478,N,00623.4502,E,2,10,0.8,1651.9,M,42.0,M,,","",-999,0,-3.134,-2.831,57.71,-3.883,57.62,-2.876
"2026-04-27 22:15:00",629,1436,13.09,"2026-04-27 22:06:00",-4.745,841,-0.736,2.024,60,3.947,6,23.45,0.6,12,1651,2,0,0,"NAN",0.85,"$GPRMC,221504,A,6003.9468,N,00623.4509,E,000.0,000.0,270426,000.6,E","$GPGGA,221504,6003.9468,N,00623.4509,E,2,12,0.8,1651.4,M,42.0,M,,","",-999,0,-3.303,-2.96,61.05,-4.079,62.91,-3.167
"2026-04-27 22:30:00",630,1436,13.09,"2026-04-27 22:24:00",-4.745,841,-0.736,2.024,60,3.946,6,23.45,0.6,11,1650,2,0,0,"NAN",0.86,"$GPRMC,223004,A,6003.9462,N,00623.4506,E,000.0,000.0,270426,000.6,E","$GPGGA,223004,6003.9462,N,00623.4506,E,2,11,0.8,1650.4,M,42.0,M,,","",-999,0,-3.122,-2.961,59.29,-3.902,60.98,-3.047
"2026-04-27 22:45:00",631,1436,13.09,"2026-04-27 22:32:00",-4.712,841,-0.736,2.024,60,3.946,6,23.45,0.6,11,1650,2,0,0,"NAN",0.83,"$GPRMC,224504,A,6003.9459,N,00623.4502,E,000.0,000.0,270426,000.6,E","$GPGGA,224504,6003.9459,N,00623.4502,E,2,11,0.8,1649.8,M,42.0,M,,","",-999,0,-2.87,-3,55.5,-3.699,55.41,-2.737
"2026-04-27 23:00:00",632,1436,13.08,"2026-04-27 23:00:00",-4.647,841,-0.736,2.024,60,3.946,6,23.45,0.6,12,1649,2,0,0,"NAN",0.86,"$GPRMC,230004,A,6003.9458,N,00623.4504,E,000.0,000.0,270426,000.6,E","$GPGGA,230004,6003.9458,N,00623.4504,E,2,12,0.8,1648.8,M,42.0,M,,","",-999,0,-3.07,-3.019,56.57,-3.775,58.02,-2.705
"2026-04-27 23:15:00",633,1436,13.07,"2026-04-27 23:06:00",-4.591,841,-0.736,2.024,60,3.946,6,23.45,0.6,10,1649,2,0,0,"NAN",0.86,"$GPRMC,231504,A,6003.9460,N,00623.4507,E,000.0,000.0,270426,000.6,E","$GPGGA,231504,6003.9460,N,00623.4507,E,2,10,0.9,1648.8,M,42.0,M,,","",-999,0,-2.494,-2.523,49,-3.408,50.02,-2.667
"2026-04-27 23:30:00",634,1436,13.07,"2026-04-27 23:29:00",-4.412,841,-0.736,2.024,60,3.946,6,23.45,0.6,12,1650,2,0,0,"NAN",0.86,"$GPRMC,233004,A,6003.9456,N,00623.4516,E,000.0,000.0,270426,000.6,E","$GPGGA,233004,6003.9456,N,00623.4516,E,2,12,0.7,1650.2,M,42.0,M,,","",-999,0,-1.899,-2.476,39.21,-2.673,46.9,-2.496
